{
"type": "FeatureCollection",
"name": "Place_Names_Noms_Lieux_APCA_vw",
"crs": { "type": "name", "properties": { "name": "urn:ogc:def:crs:OGC:1.3:CRS84" } },
"features": [
{ "type": "Feature", "properties": { "OBJECTID": 930646, "Name_e": "Blairmore", "Nom_f": "Blairmore", "Noms_Alt_Names": null, "Description": "", "min_scale_echelle": null, "max_scale_echelle": null, "CONCISCODE": "Unincorporated area\/\/Lieu non organisé" }, "geometry": { "type": "Point", "coordinates": [ -114.436393141951001, 49.607374805762802 ] } },
{ "type": "Feature", "properties": { "OBJECTID": 930647, "Name_e": "Coleman", "Nom_f": "Coleman", "Noms_Alt_Names": null, "Description": "", "min_scale_echelle": null, "max_scale_echelle": null, "CONCISCODE": "Unincorporated area\/\/Lieu non organisé" }, "geometry": { "type": "Point", "coordinates": [ -114.495316360112, 49.636545001993198 ] } },
{ "type": "Feature", "properties": { "OBJECTID": 930648, "Name_e": "Savanna", "Nom_f": "Savanna", "Noms_Alt_Names": null, "Description": "", "min_scale_echelle": null, "max_scale_echelle": null, "CONCISCODE": "Unincorporated area\/\/Lieu non organisé" }, "geometry": { "type": "Point", "coordinates": [ -114.565960374279001, 49.630458193244102 ] } },
{ "type": "Feature", "properties": { "OBJECTID": 930649, "Name_e": "Palliser Pass", "Nom_f": "Palliser Pass", "Noms_Alt_Names": null, "Description": "", "min_scale_echelle": null, "max_scale_echelle": null, "CONCISCODE": "Valley\/\/Vallée" }, "geometry": { "type": "Point", "coordinates": [ -115.387116534239993, 50.7080898747856 ] } },
{ "type": "Feature", "properties": { "OBJECTID": 930650, "Name_e": "Haig Glacier", "Nom_f": "Haig Glacier", "Noms_Alt_Names": null, "Description": "330", "min_scale_echelle": null, "max_scale_echelle": null, "CONCISCODE": "Glacier\/\/Glacier" }, "geometry": { "type": "Point", "coordinates": [ -115.303045117544002, 50.713306884430402 ] } },
{ "type": "Feature", "properties": { "OBJECTID": 930651, "Name_e": "Marvel Pass", "Nom_f": "Marvel Pass", "Noms_Alt_Names": null, "Description": "", "min_scale_echelle": null, "max_scale_echelle": null, "CONCISCODE": "Valley\/\/Vallée" }, "geometry": { "type": "Point", "coordinates": [ -115.578253410477998, 50.842598661358601 ] } },
{ "type": "Feature", "properties": { "OBJECTID": 930652, "Name_e": "Wonder Pass", "Nom_f": "Wonder Pass", "Noms_Alt_Names": null, "Description": "", "min_scale_echelle": null, "max_scale_echelle": null, "CONCISCODE": "Valley\/\/Vallée" }, "geometry": { "type": "Point", "coordinates": [ -115.593696727765007, 50.891654063204598 ] } },
{ "type": "Feature", "properties": { "OBJECTID": 930653, "Name_e": "Allenby Pass", "Nom_f": "Allenby Pass", "Noms_Alt_Names": null, "Description": "", "min_scale_echelle": null, "max_scale_echelle": null, "CONCISCODE": "Valley\/\/Vallée" }, "geometry": { "type": "Point", "coordinates": [ -115.576821944179997, 50.959032768533 ] } },
{ "type": "Feature", "properties": { "OBJECTID": 930654, "Name_e": "Og Pass", "Nom_f": "Og Pass", "Noms_Alt_Names": null, "Description": "", "min_scale_echelle": null, "max_scale_echelle": null, "CONCISCODE": "Valley\/\/Vallée" }, "geometry": { "type": "Point", "coordinates": [ -115.611656847629007, 50.9495862649662 ] } },
{ "type": "Feature", "properties": { "OBJECTID": 930655, "Name_e": "Brewster Glacier", "Nom_f": "Brewster Glacier", "Noms_Alt_Names": null, "Description": "330", "min_scale_echelle": null, "max_scale_echelle": null, "CONCISCODE": "Glacier\/\/Glacier" }, "geometry": { "type": "Point", "coordinates": [ -115.537053337581995, 50.967176973559397 ] } },
{ "type": "Feature", "properties": { "OBJECTID": 930656, "Name_e": "Assiniboine Pass", "Nom_f": "Assiniboine Pass", "Noms_Alt_Names": null, "Description": "", "min_scale_echelle": null, "max_scale_echelle": null, "CONCISCODE": "Valley\/\/Vallée" }, "geometry": { "type": "Point", "coordinates": [ -115.605280739793002, 50.926329463762499 ] } },
{ "type": "Feature", "properties": { "OBJECTID": 930657, "Name_e": "Hogarth Lakes", "Nom_f": "Hogarth Lakes", "Noms_Alt_Names": null, "Description": "", "min_scale_echelle": null, "max_scale_echelle": null, "CONCISCODE": "Lake\/\/Lac" }, "geometry": { "type": "Point", "coordinates": [ -115.319007943368007, 50.793071788317398 ] } },
{ "type": "Feature", "properties": { "OBJECTID": 930658, "Name_e": "Burstall Pass", "Nom_f": "Burstall Pass", "Noms_Alt_Names": null, "Description": "", "min_scale_echelle": null, "max_scale_echelle": null, "CONCISCODE": "Valley\/\/Vallée" }, "geometry": { "type": "Point", "coordinates": [ -115.375770446326996, 50.762019279353403 ] } },
{ "type": "Feature", "properties": { "OBJECTID": 930659, "Name_e": "Karst Springs", "Nom_f": "Karst Springs", "Noms_Alt_Names": null, "Description": "160", "min_scale_echelle": null, "max_scale_echelle": null, "CONCISCODE": "Spring\/\/Source" }, "geometry": { "type": "Point", "coordinates": [ -115.426105880489999, 50.844343079337499 ] } },
{ "type": "Feature", "properties": { "OBJECTID": 930660, "Name_e": "Burstall Lakes", "Nom_f": "Burstall Lakes", "Noms_Alt_Names": null, "Description": "", "min_scale_echelle": null, "max_scale_echelle": null, "CONCISCODE": "Lake\/\/Lac" }, "geometry": { "type": "Point", "coordinates": [ -115.322961342415994, 50.787048586462099 ] } },
{ "type": "Feature", "properties": { "OBJECTID": 930661, "Name_e": "White Man Pass", "Nom_f": "White Man Pass", "Noms_Alt_Names": null, "Description": "", "min_scale_echelle": null, "max_scale_echelle": null, "CONCISCODE": "Valley\/\/Vallée" }, "geometry": { "type": "Point", "coordinates": [ -115.493782374462995, 50.778861967163103 ] } },
{ "type": "Feature", "properties": { "OBJECTID": 930662, "Name_e": "Altrude Lakes", "Nom_f": "Altrude Lakes", "Noms_Alt_Names": null, "Description": "", "min_scale_echelle": null, "max_scale_echelle": null, "CONCISCODE": "Lake\/\/Lac" }, "geometry": { "type": "Point", "coordinates": [ -116.046408817238003, 51.232132331503102 ] } },
{ "type": "Feature", "properties": { "OBJECTID": 930663, "Name_e": "Vermilion Pass", "Nom_f": "Vermilion Pass", "Noms_Alt_Names": null, "Description": "", "min_scale_echelle": null, "max_scale_echelle": null, "CONCISCODE": "Valley\/\/Vallée" }, "geometry": { "type": "Point", "coordinates": [ -116.050002717143997, 51.227572530491202 ] } },
{ "type": "Feature", "properties": { "OBJECTID": 930664, "Name_e": "Devon Lakes", "Nom_f": "Devon Lakes", "Noms_Alt_Names": null, "Description": "", "min_scale_echelle": null, "max_scale_echelle": null, "CONCISCODE": "Lake\/\/Lac" }, "geometry": { "type": "Point", "coordinates": [ -116.254662608333007, 51.728988936570801 ] } },
{ "type": "Feature", "properties": { "OBJECTID": 930665, "Name_e": "North Saskatchewan River", "Nom_f": "Rivière Saskatchewan Nord", "Noms_Alt_Names": null, "Description": "", "min_scale_echelle": null, "max_scale_echelle": null, "CONCISCODE": "River\/\/Cours d'eau" }, "geometry": { "type": "Point", "coordinates": [ -116.661188674287004, 51.999348605253402 ] } },
{ "type": "Feature", "properties": { "OBJECTID": 930666, "Name_e": "Siffleur Wilderness Area", "Nom_f": "Siffleur", "Noms_Alt_Names": null, "Description": "", "min_scale_echelle": null, "max_scale_echelle": null, "CONCISCODE": "Conservation area\/\/Zone de préservation" }, "geometry": { "type": "Point", "coordinates": [ -116.548022024559998, 51.912667712671002 ] } },
{ "type": "Feature", "properties": { "OBJECTID": 930667, "Name_e": "Ram River Glacier", "Nom_f": "Ram River Glacier", "Noms_Alt_Names": null, "Description": "330", "min_scale_echelle": null, "max_scale_echelle": null, "CONCISCODE": "Glacier\/\/Glacier" }, "geometry": { "type": "Point", "coordinates": [ -116.192227630277003, 51.840441950795501 ] } },
{ "type": "Feature", "properties": { "OBJECTID": 930668, "Name_e": "Spreading Creek", "Nom_f": "Spreading Creek", "Noms_Alt_Names": null, "Description": "", "min_scale_echelle": null, "max_scale_echelle": null, "CONCISCODE": "River\/\/Cours d'eau" }, "geometry": { "type": "Point", "coordinates": [ -116.488749036970006, 51.993937724379002 ] } },
{ "type": "Feature", "properties": { "OBJECTID": 930669, "Name_e": "Dead Man Flat", "Nom_f": "Dead Man Flat", "Noms_Alt_Names": null, "Description": "", "min_scale_echelle": null, "max_scale_echelle": null, "CONCISCODE": "Plain\/\/Plaine" }, "geometry": { "type": "Point", "coordinates": [ -115.272110604960005, 51.0400397090391 ] } },
{ "type": "Feature", "properties": { "OBJECTID": 930670, "Name_e": "Harvie Heights", "Nom_f": "Harvie Heights", "Noms_Alt_Names": null, "Description": "", "min_scale_echelle": null, "max_scale_echelle": null, "CONCISCODE": "Unincorporated area\/\/Lieu non organisé" }, "geometry": { "type": "Point", "coordinates": [ -115.383561452967996, 51.127103802200999 ] } },
{ "type": "Feature", "properties": { "OBJECTID": 930671, "Name_e": "Canmore", "Nom_f": "Canmore", "Noms_Alt_Names": null, "Description": "20", "min_scale_echelle": null, "max_scale_echelle": null, "CONCISCODE": "Town\/\/Ville" }, "geometry": { "type": "Point", "coordinates": [ -115.347926433276996, 51.088374003479203 ] } },
{ "type": "Feature", "properties": { "OBJECTID": 930672, "Name_e": "Dead Man's Flats", "Nom_f": "Dead Man's Flats", "Noms_Alt_Names": null, "Description": "", "min_scale_echelle": null, "max_scale_echelle": null, "CONCISCODE": "Unincorporated area\/\/Lieu non organisé" }, "geometry": { "type": "Point", "coordinates": [ -115.264053301876999, 51.039875109957997 ] } },
{ "type": "Feature", "properties": { "OBJECTID": 930673, "Name_e": "Indian Flat", "Nom_f": "Indian Flat", "Noms_Alt_Names": null, "Description": "", "min_scale_echelle": null, "max_scale_echelle": null, "CONCISCODE": "Plain\/\/Plaine" }, "geometry": { "type": "Point", "coordinates": [ -115.307572522144, 51.077065907670097 ] } },
{ "type": "Feature", "properties": { "OBJECTID": 930674, "Name_e": "Goat Pond", "Nom_f": "Goat Pond", "Noms_Alt_Names": null, "Description": "", "min_scale_echelle": null, "max_scale_echelle": null, "CONCISCODE": "Lake\/\/Lac" }, "geometry": { "type": "Point", "coordinates": [ -115.404266224332005, 51.015831092771201 ] } },
{ "type": "Feature", "properties": { "OBJECTID": 930675, "Name_e": "Cascade River", "Nom_f": "Cascade River", "Noms_Alt_Names": null, "Description": "", "min_scale_echelle": null, "max_scale_echelle": null, "CONCISCODE": "River\/\/Cours d'eau" }, "geometry": { "type": "Point", "coordinates": [ -115.477089683368007, 51.167812293779903 ] } },
{ "type": "Feature", "properties": { "OBJECTID": 930676, "Name_e": "Bow River", "Nom_f": "Bow River", "Noms_Alt_Names": null, "Description": "", "min_scale_echelle": null, "max_scale_echelle": null, "CONCISCODE": "River\/\/Cours d'eau" }, "geometry": { "type": "Point", "coordinates": [ -115.497819487490005, 51.168601391699099 ] } },
{ "type": "Feature", "properties": { "OBJECTID": 930677, "Name_e": "Grassi Lakes", "Nom_f": "Grassi Lakes", "Noms_Alt_Names": null, "Description": "", "min_scale_echelle": null, "max_scale_echelle": null, "CONCISCODE": "Lake\/\/Lac" }, "geometry": { "type": "Point", "coordinates": [ -115.405547541272995, 51.072972695443198 ] } },
{ "type": "Feature", "properties": { "OBJECTID": 930678, "Name_e": "Lower Spray Falls", "Nom_f": "Lower Spray Falls", "Noms_Alt_Names": null, "Description": "", "min_scale_echelle": null, "max_scale_echelle": null, "CONCISCODE": "Falls\/\/Chute" }, "geometry": { "type": "Point", "coordinates": [ -115.251344696603994, 51.032056810282299 ] } },
{ "type": "Feature", "properties": { "OBJECTID": 930679, "Name_e": "Upper Spray Falls", "Nom_f": "Upper Spray Falls", "Noms_Alt_Names": null, "Description": "", "min_scale_echelle": null, "max_scale_echelle": null, "CONCISCODE": "Falls\/\/Chute" }, "geometry": { "type": "Point", "coordinates": [ -115.251224997528993, 51.031509510728696 ] } },
{ "type": "Feature", "properties": { "OBJECTID": 930680, "Name_e": "Policeman Creek", "Nom_f": "Policeman Creek", "Noms_Alt_Names": null, "Description": "", "min_scale_echelle": null, "max_scale_echelle": null, "CONCISCODE": "River\/\/Cours d'eau" }, "geometry": { "type": "Point", "coordinates": [ -115.332687825158004, 51.068779103586699 ] } },
{ "type": "Feature", "properties": { "OBJECTID": 930681, "Name_e": "Whitemans Pond", "Nom_f": "Whitemans Pond", "Noms_Alt_Names": null, "Description": "", "min_scale_echelle": null, "max_scale_echelle": null, "CONCISCODE": "Lake\/\/Lac" }, "geometry": { "type": "Point", "coordinates": [ -115.411703241582003, 51.069364595222403 ] } },
{ "type": "Feature", "properties": { "OBJECTID": 930682, "Name_e": "Lake Minnewanka", "Nom_f": "Lake Minnewanka", "Noms_Alt_Names": null, "Description": "", "min_scale_echelle": null, "max_scale_echelle": null, "CONCISCODE": "Lake\/\/Lac" }, "geometry": { "type": "Point", "coordinates": [ -115.317907170042005, 51.238921216567199 ] } },
{ "type": "Feature", "properties": { "OBJECTID": 930683, "Name_e": "Simpson Pass", "Nom_f": "Simpson Pass", "Noms_Alt_Names": null, "Description": "", "min_scale_echelle": null, "max_scale_echelle": null, "CONCISCODE": "Valley\/\/Vallée" }, "geometry": { "type": "Point", "coordinates": [ -115.833017631839994, 51.084467547784897 ] } },
{ "type": "Feature", "properties": { "OBJECTID": 930684, "Name_e": "Johnston Canyon", "Nom_f": "Johnston Canyon", "Noms_Alt_Names": null, "Description": "", "min_scale_echelle": null, "max_scale_echelle": null, "CONCISCODE": "Valley\/\/Vallée" }, "geometry": { "type": "Point", "coordinates": [ -115.837339781476999, 51.249756557162002 ] } },
{ "type": "Feature", "properties": { "OBJECTID": 930685, "Name_e": "Sawback", "Nom_f": "Sawback", "Noms_Alt_Names": null, "Description": "", "min_scale_echelle": null, "max_scale_echelle": null, "CONCISCODE": "Unincorporated area\/\/Lieu non organisé" }, "geometry": { "type": "Point", "coordinates": [ -115.705821531302007, 51.171595367332202 ] } },
{ "type": "Feature", "properties": { "OBJECTID": 930686, "Name_e": "Vermilion Lakes", "Nom_f": "Vermilion Lakes", "Noms_Alt_Names": null, "Description": "", "min_scale_echelle": null, "max_scale_echelle": null, "CONCISCODE": "Lake\/\/Lac" }, "geometry": { "type": "Point", "coordinates": [ -115.594188010267999, 51.180777980650902 ] } },
{ "type": "Feature", "properties": { "OBJECTID": 930687, "Name_e": "Citadel Pass", "Nom_f": "Citadel Pass", "Noms_Alt_Names": null, "Description": "", "min_scale_echelle": null, "max_scale_echelle": null, "CONCISCODE": "Valley\/\/Vallée" }, "geometry": { "type": "Point", "coordinates": [ -115.714867789850004, 51.024122857529001 ] } },
{ "type": "Feature", "properties": { "OBJECTID": 930688, "Name_e": "Massive", "Nom_f": "Massive", "Noms_Alt_Names": null, "Description": "", "min_scale_echelle": null, "max_scale_echelle": null, "CONCISCODE": "Unincorporated area\/\/Lieu non organisé" }, "geometry": { "type": "Point", "coordinates": [ -115.788457863464998, 51.226085361458203 ] } },
{ "type": "Feature", "properties": { "OBJECTID": 930689, "Name_e": "Redearth Pass", "Nom_f": "Redearth Pass", "Noms_Alt_Names": null, "Description": "", "min_scale_echelle": null, "max_scale_echelle": null, "CONCISCODE": "Valley\/\/Vallée" }, "geometry": { "type": "Point", "coordinates": [ -115.885676444124996, 51.090892842157203 ] } },
{ "type": "Feature", "properties": { "OBJECTID": 930690, "Name_e": "Healy Pass", "Nom_f": "Healy Pass", "Noms_Alt_Names": null, "Description": "", "min_scale_echelle": null, "max_scale_echelle": null, "CONCISCODE": "Valley\/\/Vallée" }, "geometry": { "type": "Point", "coordinates": [ -115.866606241715999, 51.092743344031099 ] } },
{ "type": "Feature", "properties": { "OBJECTID": 930691, "Name_e": "Twin Lakes", "Nom_f": "Twin Lakes", "Noms_Alt_Names": null, "Description": "", "min_scale_echelle": null, "max_scale_echelle": null, "CONCISCODE": "Lake\/\/Lac" }, "geometry": { "type": "Point", "coordinates": [ -115.982234396912006, 51.202206537863802 ] } },
{ "type": "Feature", "properties": { "OBJECTID": 930692, "Name_e": "Whistling Valley", "Nom_f": "Whistling Valley", "Noms_Alt_Names": null, "Description": "", "min_scale_echelle": null, "max_scale_echelle": null, "CONCISCODE": "Valley\/\/Vallée" }, "geometry": { "type": "Point", "coordinates": [ -115.931149859434001, 51.1128234382196 ] } },
{ "type": "Feature", "properties": { "OBJECTID": 930693, "Name_e": "Gibbon Pass", "Nom_f": "Gibbon Pass", "Noms_Alt_Names": null, "Description": "", "min_scale_echelle": null, "max_scale_echelle": null, "CONCISCODE": "Valley\/\/Vallée" }, "geometry": { "type": "Point", "coordinates": [ -115.963900488554998, 51.186201538527897 ] } },
{ "type": "Feature", "properties": { "OBJECTID": 930694, "Name_e": "Banff", "Nom_f": "Banff", "Noms_Alt_Names": null, "Description": "20", "min_scale_echelle": null, "max_scale_echelle": null, "CONCISCODE": "Town\/\/Ville" }, "geometry": { "type": "Point", "coordinates": [ -115.568953005257001, 51.180755384172699 ] } },
{ "type": "Feature", "properties": { "OBJECTID": 930695, "Name_e": "Echo Creek", "Nom_f": "Echo Creek", "Noms_Alt_Names": null, "Description": "", "min_scale_echelle": null, "max_scale_echelle": null, "CONCISCODE": "River\/\/Cours d'eau" }, "geometry": { "type": "Point", "coordinates": [ -115.584032409154005, 51.180893581514503 ] } },
{ "type": "Feature", "properties": { "OBJECTID": 930696, "Name_e": "Cory Pass", "Nom_f": "Cory Pass", "Noms_Alt_Names": null, "Description": "", "min_scale_echelle": null, "max_scale_echelle": null, "CONCISCODE": "Valley\/\/Vallée" }, "geometry": { "type": "Point", "coordinates": [ -115.676439235420006, 51.205016573341602 ] } },
{ "type": "Feature", "properties": { "OBJECTID": 930697, "Name_e": "Fatigue Pass", "Nom_f": "Fatigue Pass", "Noms_Alt_Names": null, "Description": "", "min_scale_echelle": null, "max_scale_echelle": null, "CONCISCODE": "Valley\/\/Vallée" }, "geometry": { "type": "Point", "coordinates": [ -115.685447382163005, 51.014644360332497 ] } },
{ "type": "Feature", "properties": { "OBJECTID": 930698, "Name_e": "Mule Shoe Lake", "Nom_f": "Mule Shoe Lake", "Noms_Alt_Names": null, "Description": "", "min_scale_echelle": null, "max_scale_echelle": null, "CONCISCODE": "Lake\/\/Lac" }, "geometry": { "type": "Point", "coordinates": [ -115.717926034482005, 51.175241666544501 ] } },
{ "type": "Feature", "properties": { "OBJECTID": 930699, "Name_e": "Ball Pass", "Nom_f": "Ball Pass", "Noms_Alt_Names": null, "Description": "", "min_scale_echelle": null, "max_scale_echelle": null, "CONCISCODE": "Valley\/\/Vallée" }, "geometry": { "type": "Point", "coordinates": [ -115.989001176933002, 51.129005831811497 ] } },
{ "type": "Feature", "properties": { "OBJECTID": 930700, "Name_e": "Goat's Eye", "Nom_f": "Goat's Eye", "Noms_Alt_Names": null, "Description": "", "min_scale_echelle": null, "max_scale_echelle": null, "CONCISCODE": "Cave\/\/Caverne" }, "geometry": { "type": "Point", "coordinates": [ -115.738467618794004, 51.109179859445199 ] } },
{ "type": "Feature", "properties": { "OBJECTID": 930701, "Name_e": "Sundance Pass", "Nom_f": "Sundance Pass", "Noms_Alt_Names": null, "Description": "", "min_scale_echelle": null, "max_scale_echelle": null, "CONCISCODE": "Valley\/\/Vallée" }, "geometry": { "type": "Point", "coordinates": [ -115.562318381161006, 51.102808579044599 ] } },
{ "type": "Feature", "properties": { "OBJECTID": 930702, "Name_e": "Sundance Canyon", "Nom_f": "Sundance Canyon", "Noms_Alt_Names": null, "Description": "", "min_scale_echelle": null, "max_scale_echelle": null, "CONCISCODE": "Valley\/\/Vallée" }, "geometry": { "type": "Point", "coordinates": [ -115.610234704156994, 51.1496865776353 ] } },
{ "type": "Feature", "properties": { "OBJECTID": 930703, "Name_e": "Ranger Canyon", "Nom_f": "Ranger Canyon", "Noms_Alt_Names": null, "Description": "", "min_scale_echelle": null, "max_scale_echelle": null, "CONCISCODE": "Valley\/\/Vallée" }, "geometry": { "type": "Point", "coordinates": [ -115.756577561561997, 51.241197465746701 ] } },
{ "type": "Feature", "properties": { "OBJECTID": 930704, "Name_e": "Bow Falls", "Nom_f": "Bow Falls", "Noms_Alt_Names": null, "Description": "", "min_scale_echelle": null, "max_scale_echelle": null, "CONCISCODE": "Falls\/\/Chute" }, "geometry": { "type": "Point", "coordinates": [ -115.561501300806, 51.167973583506701 ] } },
{ "type": "Feature", "properties": { "OBJECTID": 930705, "Name_e": "Gargoyle Valley", "Nom_f": "Gargoyle Valley", "Noms_Alt_Names": null, "Description": "", "min_scale_echelle": null, "max_scale_echelle": null, "CONCISCODE": "Valley\/\/Vallée" }, "geometry": { "type": "Point", "coordinates": [ -115.673127035068006, 51.211865773796603 ] } },
{ "type": "Feature", "properties": { "OBJECTID": 930706, "Name_e": "Harvey Pass", "Nom_f": "Harvey Pass", "Noms_Alt_Names": null, "Description": "", "min_scale_echelle": null, "max_scale_echelle": null, "CONCISCODE": "Valley\/\/Vallée" }, "geometry": { "type": "Point", "coordinates": [ -115.804379940199993, 51.134150753520899 ] } },
{ "type": "Feature", "properties": { "OBJECTID": 930707, "Name_e": "Block Lakes", "Nom_f": "Block Lakes", "Noms_Alt_Names": null, "Description": "", "min_scale_echelle": null, "max_scale_echelle": null, "CONCISCODE": "Lake\/\/Lac" }, "geometry": { "type": "Point", "coordinates": [ -115.842998917897006, 51.371554764099898 ] } },
{ "type": "Feature", "properties": { "OBJECTID": 930708, "Name_e": "Badger Pass", "Nom_f": "Badger Pass", "Noms_Alt_Names": null, "Description": "", "min_scale_echelle": null, "max_scale_echelle": null, "CONCISCODE": "Valley\/\/Vallée" }, "geometry": { "type": "Point", "coordinates": [ -115.89428274027, 51.410950360797202 ] } },
{ "type": "Feature", "properties": { "OBJECTID": 930709, "Name_e": "Dormer Pass", "Nom_f": "Dormer Pass", "Noms_Alt_Names": null, "Description": "", "min_scale_echelle": null, "max_scale_echelle": null, "CONCISCODE": "Valley\/\/Vallée" }, "geometry": { "type": "Point", "coordinates": [ -115.570326083889995, 51.443300699573001 ] } },
{ "type": "Feature", "properties": { "OBJECTID": 930710, "Name_e": "Castle Junction", "Nom_f": "Castle Junction", "Noms_Alt_Names": null, "Description": "", "min_scale_echelle": null, "max_scale_echelle": null, "CONCISCODE": "Unincorporated area\/\/Lieu non organisé" }, "geometry": { "type": "Point", "coordinates": [ -115.918155003213002, 51.269144448464097 ] } },
{ "type": "Feature", "properties": { "OBJECTID": 930711, "Name_e": "Ink Pots", "Nom_f": "Ink Pots", "Noms_Alt_Names": null, "Description": "160", "min_scale_echelle": null, "max_scale_echelle": null, "CONCISCODE": "Spring\/\/Source" }, "geometry": { "type": "Point", "coordinates": [ -115.820250684539999, 51.273669960129297 ] } },
{ "type": "Feature", "properties": { "OBJECTID": 930712, "Name_e": "Forty Mile Summit", "Nom_f": "Forty Mile Summit", "Noms_Alt_Names": null, "Description": "", "min_scale_echelle": null, "max_scale_echelle": null, "CONCISCODE": "Valley\/\/Vallée" }, "geometry": { "type": "Point", "coordinates": [ -115.732642686451001, 51.3429344747545 ] } },
{ "type": "Feature", "properties": { "OBJECTID": 930713, "Name_e": "Pulsatilla Pass", "Nom_f": "Pulsatilla Pass", "Noms_Alt_Names": null, "Description": "", "min_scale_echelle": null, "max_scale_echelle": null, "CONCISCODE": "Valley\/\/Vallée" }, "geometry": { "type": "Point", "coordinates": [ -115.961846454992994, 51.414009052316501 ] } },
{ "type": "Feature", "properties": { "OBJECTID": 930714, "Name_e": "Flints Park", "Nom_f": "Flints Park", "Noms_Alt_Names": null, "Description": "", "min_scale_echelle": null, "max_scale_echelle": null, "CONCISCODE": "Valley\/\/Vallée" }, "geometry": { "type": "Point", "coordinates": [ -115.727591608962996, 51.421076080576398 ] } },
{ "type": "Feature", "properties": { "OBJECTID": 930715, "Name_e": "Mystic Pass", "Nom_f": "Mystic Pass", "Noms_Alt_Names": null, "Description": "", "min_scale_echelle": null, "max_scale_echelle": null, "CONCISCODE": "Valley\/\/Vallée" }, "geometry": { "type": "Point", "coordinates": [ -115.761802882151997, 51.305493269457401 ] } },
{ "type": "Feature", "properties": { "OBJECTID": 930716, "Name_e": "Stewart Canyon", "Nom_f": "Stewart Canyon", "Noms_Alt_Names": null, "Description": "", "min_scale_echelle": null, "max_scale_echelle": null, "CONCISCODE": "Valley\/\/Vallée" }, "geometry": { "type": "Point", "coordinates": [ -115.510713224846995, 51.2869398973043 ] } },
{ "type": "Feature", "properties": { "OBJECTID": 930717, "Name_e": "Aylmer Pass", "Nom_f": "Aylmer Pass", "Noms_Alt_Names": null, "Description": "", "min_scale_echelle": null, "max_scale_echelle": null, "CONCISCODE": "Valley\/\/Vallée" }, "geometry": { "type": "Point", "coordinates": [ -115.455430321896003, 51.3180701054617 ] } },
{ "type": "Feature", "properties": { "OBJECTID": 930718, "Name_e": "Aylmer Canyon", "Nom_f": "Aylmer Canyon", "Noms_Alt_Names": null, "Description": "", "min_scale_echelle": null, "max_scale_echelle": null, "CONCISCODE": "Valley\/\/Vallée" }, "geometry": { "type": "Point", "coordinates": [ -115.419080007860998, 51.2947896084478 ] } },
{ "type": "Feature", "properties": { "OBJECTID": 930719, "Name_e": "Spectral Lakes", "Nom_f": "Spectral Lakes", "Noms_Alt_Names": null, "Description": "", "min_scale_echelle": null, "max_scale_echelle": null, "CONCISCODE": "Lake\/\/Lac" }, "geometry": { "type": "Point", "coordinates": [ -115.473878340788005, 51.365146706070703 ] } },
{ "type": "Feature", "properties": { "OBJECTID": 930720, "Name_e": "Devils Gap", "Nom_f": "Devils Gap", "Noms_Alt_Names": null, "Description": "", "min_scale_echelle": null, "max_scale_echelle": null, "CONCISCODE": "Valley\/\/Vallée" }, "geometry": { "type": "Point", "coordinates": [ -115.183136554254006, 51.279358134634201 ] } },
{ "type": "Feature", "properties": { "OBJECTID": 930721, "Name_e": "Ghost River Wilderness Area", "Nom_f": "Ghost River", "Noms_Alt_Names": "Kananaskis Country", "Description": "", "min_scale_echelle": null, "max_scale_echelle": null, "CONCISCODE": "Conservation area\/\/Zone de préservation" }, "geometry": { "type": "Point", "coordinates": [ -115.405858226366007, 51.366250613428001 ] } },
{ "type": "Feature", "properties": { "OBJECTID": 930722, "Name_e": "Ghost Lakes", "Nom_f": "Ghost Lakes", "Noms_Alt_Names": null, "Description": "", "min_scale_echelle": null, "max_scale_echelle": null, "CONCISCODE": "Lake\/\/Lac" }, "geometry": { "type": "Point", "coordinates": [ -115.219349759626994, 51.269172429332997 ] } },
{ "type": "Feature", "properties": { "OBJECTID": 930723, "Name_e": "Panther River", "Nom_f": "Panther River", "Noms_Alt_Names": null, "Description": "", "min_scale_echelle": null, "max_scale_echelle": null, "CONCISCODE": "River\/\/Cours d'eau" }, "geometry": { "type": "Point", "coordinates": [ -115.485542718484993, 51.618568719806298 ] } },
{ "type": "Feature", "properties": { "OBJECTID": 930724, "Name_e": "Snow Creek Summit", "Nom_f": "Snow Creek Summit", "Noms_Alt_Names": null, "Description": "", "min_scale_echelle": null, "max_scale_echelle": null, "CONCISCODE": "Valley\/\/Vallée" }, "geometry": { "type": "Point", "coordinates": [ -115.811482481159999, 51.609253981798403 ] } },
{ "type": "Feature", "properties": { "OBJECTID": 930725, "Name_e": "Divide Pass", "Nom_f": "Divide Pass", "Noms_Alt_Names": null, "Description": "", "min_scale_echelle": null, "max_scale_echelle": null, "CONCISCODE": "Valley\/\/Vallée" }, "geometry": { "type": "Point", "coordinates": [ -115.930085949146999, 51.7486044763777 ] } },
{ "type": "Feature", "properties": { "OBJECTID": 930726, "Name_e": "Harrison Flats", "Nom_f": "Harrison Flats", "Noms_Alt_Names": null, "Description": "350", "min_scale_echelle": null, "max_scale_echelle": null, "CONCISCODE": "Low vegetation\/\/Végétation basse" }, "geometry": { "type": "Point", "coordinates": [ -115.875916673027007, 51.866592889521598 ] } },
{ "type": "Feature", "properties": { "OBJECTID": 930727, "Name_e": "Garth", "Nom_f": "Garth", "Noms_Alt_Names": null, "Description": "", "min_scale_echelle": null, "max_scale_echelle": null, "CONCISCODE": "Unincorporated area\/\/Lieu non organisé" }, "geometry": { "type": "Point", "coordinates": [ -115.018935243889999, 52.3481522187667 ] } },
{ "type": "Feature", "properties": { "OBJECTID": 930728, "Name_e": "Ferrier", "Nom_f": "Ferrier", "Noms_Alt_Names": null, "Description": "", "min_scale_echelle": null, "max_scale_echelle": null, "CONCISCODE": "Unincorporated area\/\/Lieu non organisé" }, "geometry": { "type": "Point", "coordinates": [ -115.075132161900996, 52.369346512972299 ] } },
{ "type": "Feature", "properties": { "OBJECTID": 930729, "Name_e": "Rocky Mountain House", "Nom_f": "Rocky Mountain House", "Noms_Alt_Names": null, "Description": "20", "min_scale_echelle": null, "max_scale_echelle": null, "CONCISCODE": "Town\/\/Ville" }, "geometry": { "type": "Point", "coordinates": [ -114.913948330462006, 52.377631332577998 ] } },
{ "type": "Feature", "properties": { "OBJECTID": 930730, "Name_e": "Lochearn", "Nom_f": "Lochearn", "Noms_Alt_Names": null, "Description": "", "min_scale_echelle": null, "max_scale_echelle": null, "CONCISCODE": "Unincorporated area\/\/Lieu non organisé" }, "geometry": { "type": "Point", "coordinates": [ -114.976175640912999, 52.367173724906301 ] } },
{ "type": "Feature", "properties": { "OBJECTID": 930731, "Name_e": "Otway", "Nom_f": "Otway", "Noms_Alt_Names": null, "Description": "", "min_scale_echelle": null, "max_scale_echelle": null, "CONCISCODE": "Unincorporated area\/\/Lieu non organisé" }, "geometry": { "type": "Point", "coordinates": [ -114.915428227936999, 52.366671531362499 ] } },
{ "type": "Feature", "properties": { "OBJECTID": 930732, "Name_e": "Crimson Lake Provincial Park", "Nom_f": "Crimson Lake", "Noms_Alt_Names": null, "Description": "", "min_scale_echelle": null, "max_scale_echelle": null, "CONCISCODE": "Conservation area\/\/Zone de préservation" }, "geometry": { "type": "Point", "coordinates": [ -114.993930758768002, 52.414283025663899 ] } },
{ "type": "Feature", "properties": { "OBJECTID": 930733, "Name_e": "McDonald Creek", "Nom_f": "McDonald Creek", "Noms_Alt_Names": null, "Description": "", "min_scale_echelle": null, "max_scale_echelle": null, "CONCISCODE": "River\/\/Cours d'eau" }, "geometry": { "type": "Point", "coordinates": [ -116.811493281883997, 52.246170400680398 ] } },
{ "type": "Feature", "properties": { "OBJECTID": 930734, "Name_e": "White Goat Wilderness Area", "Nom_f": "White Goat", "Noms_Alt_Names": null, "Description": "", "min_scale_echelle": null, "max_scale_echelle": null, "CONCISCODE": "Conservation area\/\/Zone de préservation" }, "geometry": { "type": "Point", "coordinates": [ -116.831584974974007, 52.2151823957064 ] } },
{ "type": "Feature", "properties": { "OBJECTID": 930735, "Name_e": "Cline Pass", "Nom_f": "Cline Pass", "Noms_Alt_Names": null, "Description": "", "min_scale_echelle": null, "max_scale_echelle": null, "CONCISCODE": "Valley\/\/Vallée" }, "geometry": { "type": "Point", "coordinates": [ -116.973789011966005, 52.2404985810618 ] } },
{ "type": "Feature", "properties": { "OBJECTID": 930736, "Name_e": "Huntington Glacier", "Nom_f": "Huntington Glacier", "Noms_Alt_Names": null, "Description": "330", "min_scale_echelle": null, "max_scale_echelle": null, "CONCISCODE": "Glacier\/\/Glacier" }, "geometry": { "type": "Point", "coordinates": [ -116.963294985890002, 52.1647539779634 ] } },
{ "type": "Feature", "properties": { "OBJECTID": 930737, "Name_e": "Cataract Pass", "Nom_f": "Cataract Pass", "Noms_Alt_Names": null, "Description": "", "min_scale_echelle": null, "max_scale_echelle": null, "CONCISCODE": "Valley\/\/Vallée" }, "geometry": { "type": "Point", "coordinates": [ -117.023554515713997, 52.219903073406797 ] } },
{ "type": "Feature", "properties": { "OBJECTID": 930738, "Name_e": "Nordegg", "Nom_f": "Nordegg", "Noms_Alt_Names": null, "Description": "", "min_scale_echelle": null, "max_scale_echelle": null, "CONCISCODE": "Unincorporated area\/\/Lieu non organisé" }, "geometry": { "type": "Point", "coordinates": [ -116.075032402573996, 52.471517700559097 ] } },
{ "type": "Feature", "properties": { "OBJECTID": 930739, "Name_e": "Dowling Ford", "Nom_f": "Dowling Ford", "Noms_Alt_Names": null, "Description": "", "min_scale_echelle": null, "max_scale_echelle": null, "CONCISCODE": "River feature\/\/Entité fluviale" }, "geometry": { "type": "Point", "coordinates": [ -116.821526508768997, 52.637788219525802 ] } },
{ "type": "Feature", "properties": { "OBJECTID": 930740, "Name_e": "Birch Lake", "Nom_f": null, "Noms_Alt_Names": null, "Description": "", "min_scale_echelle": null, "max_scale_echelle": null, "CONCISCODE": "Lake\/\/Lac" }, "geometry": { "type": "Point", "coordinates": [ -114.855570263073005, 52.011395585734199 ] } },
{ "type": "Feature", "properties": { "OBJECTID": 930741, "Name_e": "Beaver Lake", "Nom_f": null, "Noms_Alt_Names": null, "Description": "", "min_scale_echelle": null, "max_scale_echelle": null, "CONCISCODE": "Lake\/\/Lac" }, "geometry": { "type": "Point", "coordinates": [ -114.788070282934996, 52.006395625374402 ] } },
{ "type": "Feature", "properties": { "OBJECTID": 930742, "Name_e": "Rapid Creek", "Nom_f": null, "Noms_Alt_Names": null, "Description": "", "min_scale_echelle": null, "max_scale_echelle": null, "CONCISCODE": "River\/\/Cours d'eau" }, "geometry": { "type": "Point", "coordinates": [ -115.823070727198001, 52.733339981628703 ] } },
{ "type": "Feature", "properties": { "OBJECTID": 930743, "Name_e": "Moose Basin", "Nom_f": null, "Noms_Alt_Names": null, "Description": "", "min_scale_echelle": null, "max_scale_echelle": null, "CONCISCODE": "Lake\/\/Lac" }, "geometry": { "type": "Point", "coordinates": [ -115.729737287263006, 52.699451123257298 ] } },
{ "type": "Feature", "properties": { "OBJECTID": 930744, "Name_e": "Lundine Creek", "Nom_f": null, "Noms_Alt_Names": null, "Description": "", "min_scale_echelle": null, "max_scale_echelle": null, "CONCISCODE": "River\/\/Cours d'eau" }, "geometry": { "type": "Point", "coordinates": [ -115.640848255966006, 52.392506655355497 ] } },
{ "type": "Feature", "properties": { "OBJECTID": 930745, "Name_e": "Sunset Creek", "Nom_f": null, "Noms_Alt_Names": null, "Description": "", "min_scale_echelle": null, "max_scale_echelle": null, "CONCISCODE": "River\/\/Cours d'eau" }, "geometry": { "type": "Point", "coordinates": [ -115.576959387401999, 52.448062255456399 ] } },
{ "type": "Feature", "properties": { "OBJECTID": 930746, "Name_e": "Ancona", "Nom_f": null, "Noms_Alt_Names": null, "Description": "", "min_scale_echelle": null, "max_scale_echelle": null, "CONCISCODE": "Unincorporated area\/\/Lieu non organisé" }, "geometry": { "type": "Point", "coordinates": [ -115.586959420905998, 52.450284470050498 ] } },
{ "type": "Feature", "properties": { "OBJECTID": 930747, "Name_e": "Jackfish Creek", "Nom_f": null, "Noms_Alt_Names": null, "Description": "", "min_scale_echelle": null, "max_scale_echelle": null, "CONCISCODE": "River\/\/Cours d'eau" }, "geometry": { "type": "Point", "coordinates": [ -115.547237154201994, 52.4502844746685 ] } },
{ "type": "Feature", "properties": { "OBJECTID": 930748, "Name_e": "Camp Creek", "Nom_f": null, "Noms_Alt_Names": null, "Description": "", "min_scale_echelle": null, "max_scale_echelle": null, "CONCISCODE": "River\/\/Cours d'eau" }, "geometry": { "type": "Point", "coordinates": [ -115.525570592791993, 52.4422288813264 ] } },
{ "type": "Feature", "properties": { "OBJECTID": 930749, "Name_e": "Moose Creek", "Nom_f": null, "Noms_Alt_Names": null, "Description": "", "min_scale_echelle": null, "max_scale_echelle": null, "CONCISCODE": "River\/\/Cours d'eau" }, "geometry": { "type": "Point", "coordinates": [ -115.131959142355001, 52.0155622814286 ] } },
{ "type": "Feature", "properties": { "OBJECTID": 930750, "Name_e": "Lodge", "Nom_f": null, "Noms_Alt_Names": null, "Description": "", "min_scale_echelle": null, "max_scale_echelle": null, "CONCISCODE": "Unincorporated area\/\/Lieu non organisé" }, "geometry": { "type": "Point", "coordinates": [ -114.884459196880997, 52.371395662304302 ] } },
{ "type": "Feature", "properties": { "OBJECTID": 930751, "Name_e": "Lake Ernie", "Nom_f": null, "Noms_Alt_Names": null, "Description": "", "min_scale_echelle": null, "max_scale_echelle": null, "CONCISCODE": "Lake\/\/Lac" }, "geometry": { "type": "Point", "coordinates": [ -114.862514788458995, 52.3722289937295 ] } },
{ "type": "Feature", "properties": { "OBJECTID": 930752, "Name_e": "Clear Creek", "Nom_f": null, "Noms_Alt_Names": null, "Description": "", "min_scale_echelle": null, "max_scale_echelle": null, "CONCISCODE": "River\/\/Cours d'eau" }, "geometry": { "type": "Point", "coordinates": [ -114.768070366610004, 52.210284512724101 ] } },
{ "type": "Feature", "properties": { "OBJECTID": 930753, "Name_e": "Alhambra", "Nom_f": null, "Noms_Alt_Names": null, "Description": "", "min_scale_echelle": null, "max_scale_echelle": null, "CONCISCODE": "Unincorporated area\/\/Lieu non organisé" }, "geometry": { "type": "Point", "coordinates": [ -114.672514764051996, 52.343062338355899 ] } },
{ "type": "Feature", "properties": { "OBJECTID": 930754, "Name_e": "Horseguard Creek", "Nom_f": null, "Noms_Alt_Names": null, "Description": "", "min_scale_echelle": null, "max_scale_echelle": null, "CONCISCODE": "River\/\/Cours d'eau" }, "geometry": { "type": "Point", "coordinates": [ -114.669958796310993, 52.378117728821998 ] } },
{ "type": "Feature", "properties": { "OBJECTID": 930755, "Name_e": "Horburg", "Nom_f": null, "Noms_Alt_Names": null, "Description": "", "min_scale_echelle": null, "max_scale_echelle": null, "CONCISCODE": "Unincorporated area\/\/Lieu non organisé" }, "geometry": { "type": "Point", "coordinates": [ -115.281959322326998, 52.411117792756698 ] } },
{ "type": "Feature", "properties": { "OBJECTID": 930756, "Name_e": "Radial Lake", "Nom_f": null, "Noms_Alt_Names": null, "Description": "", "min_scale_echelle": null, "max_scale_echelle": null, "CONCISCODE": "Lake\/\/Lac" }, "geometry": { "type": "Point", "coordinates": [ -115.224737158417, 52.464173405361699 ] } },
{ "type": "Feature", "properties": { "OBJECTID": 930757, "Name_e": "Louis Lake", "Nom_f": null, "Noms_Alt_Names": null, "Description": "", "min_scale_echelle": null, "max_scale_echelle": null, "CONCISCODE": "Lake\/\/Lac" }, "geometry": { "type": "Point", "coordinates": [ -115.126681594272995, 52.412228921761802 ] } },
{ "type": "Feature", "properties": { "OBJECTID": 930758, "Name_e": "Crimson Lake", "Nom_f": null, "Noms_Alt_Names": null, "Description": "", "min_scale_echelle": null, "max_scale_echelle": null, "CONCISCODE": "Lake\/\/Lac" }, "geometry": { "type": "Point", "coordinates": [ -115.036681580337998, 52.458617818117403 ] } },
{ "type": "Feature", "properties": { "OBJECTID": 930759, "Name_e": "Pinto Creek", "Nom_f": null, "Noms_Alt_Names": null, "Description": "", "min_scale_echelle": null, "max_scale_echelle": null, "CONCISCODE": "River\/\/Cours d'eau" }, "geometry": { "type": "Point", "coordinates": [ -115.778070561061, 52.266117757911502 ] } },
{ "type": "Feature", "properties": { "OBJECTID": 930760, "Name_e": "Prentice Creek", "Nom_f": null, "Noms_Alt_Names": null, "Description": "", "min_scale_echelle": null, "max_scale_echelle": null, "CONCISCODE": "River\/\/Cours d'eau" }, "geometry": { "type": "Point", "coordinates": [ -114.988903797272002, 52.4494512112433 ] } },
{ "type": "Feature", "properties": { "OBJECTID": 930761, "Name_e": "Chicken Creek", "Nom_f": null, "Noms_Alt_Names": null, "Description": "", "min_scale_echelle": null, "max_scale_echelle": null, "CONCISCODE": "River\/\/Cours d'eau" }, "geometry": { "type": "Point", "coordinates": [ -114.967792638514993, 52.480284544605503 ] } },
{ "type": "Feature", "properties": { "OBJECTID": 930762, "Name_e": "Canyon Creek", "Nom_f": null, "Noms_Alt_Names": null, "Description": "", "min_scale_echelle": null, "max_scale_echelle": null, "CONCISCODE": "River\/\/Cours d'eau" }, "geometry": { "type": "Point", "coordinates": [ -114.971125967589998, 52.520284502368703 ] } },
{ "type": "Feature", "properties": { "OBJECTID": 930763, "Name_e": "Easy Creek", "Nom_f": null, "Noms_Alt_Names": null, "Description": "", "min_scale_echelle": null, "max_scale_echelle": null, "CONCISCODE": "River\/\/Cours d'eau" }, "geometry": { "type": "Point", "coordinates": [ -115.818348305873997, 52.296673317766803 ] } },
{ "type": "Feature", "properties": { "OBJECTID": 930764, "Name_e": "Gap Lake", "Nom_f": null, "Noms_Alt_Names": null, "Description": "", "min_scale_echelle": null, "max_scale_echelle": null, "CONCISCODE": "Lake\/\/Lac" }, "geometry": { "type": "Point", "coordinates": [ -115.831126111624002, 52.330284409187499 ] } },
{ "type": "Feature", "properties": { "OBJECTID": 930765, "Name_e": "Elk Creek", "Nom_f": null, "Noms_Alt_Names": null, "Description": "", "min_scale_echelle": null, "max_scale_echelle": null, "CONCISCODE": "River\/\/Cours d'eau" }, "geometry": { "type": "Point", "coordinates": [ -115.644459241221, 52.0494511011904 ] } },
{ "type": "Feature", "properties": { "OBJECTID": 930766, "Name_e": "Radiant Creek", "Nom_f": null, "Noms_Alt_Names": null, "Description": "", "min_scale_echelle": null, "max_scale_echelle": null, "CONCISCODE": "River\/\/Cours d'eau" }, "geometry": { "type": "Point", "coordinates": [ -115.533903762281994, 52.040006631771398 ] } },
{ "type": "Feature", "properties": { "OBJECTID": 930767, "Name_e": "Idlewilde Creek", "Nom_f": null, "Noms_Alt_Names": null, "Description": "", "min_scale_echelle": null, "max_scale_echelle": null, "CONCISCODE": "River\/\/Cours d'eau" }, "geometry": { "type": "Point", "coordinates": [ -115.526681575807999, 52.035839993287503 ] } },
{ "type": "Feature", "properties": { "OBJECTID": 930768, "Name_e": "Crescent Creek", "Nom_f": null, "Noms_Alt_Names": null, "Description": "", "min_scale_echelle": null, "max_scale_echelle": null, "CONCISCODE": "River\/\/Cours d'eau" }, "geometry": { "type": "Point", "coordinates": [ -115.650292747945997, 52.151117719360698 ] } },
{ "type": "Feature", "properties": { "OBJECTID": 930769, "Name_e": "Gloomy Creek", "Nom_f": null, "Noms_Alt_Names": null, "Description": "", "min_scale_echelle": null, "max_scale_echelle": null, "CONCISCODE": "River\/\/Cours d'eau" }, "geometry": { "type": "Point", "coordinates": [ -115.588348207444994, 52.167784393563899 ] } },
{ "type": "Feature", "properties": { "OBJECTID": 930770, "Name_e": "Forty-five Mile Creek", "Nom_f": null, "Noms_Alt_Names": null, "Description": "", "min_scale_echelle": null, "max_scale_echelle": null, "CONCISCODE": "River\/\/Cours d'eau" }, "geometry": { "type": "Point", "coordinates": [ -115.374181579457996, 52.183617750705103 ] } },
{ "type": "Feature", "properties": { "OBJECTID": 930771, "Name_e": "Two Dam Creek", "Nom_f": null, "Noms_Alt_Names": null, "Description": "", "min_scale_echelle": null, "max_scale_echelle": null, "CONCISCODE": "River\/\/Cours d'eau" }, "geometry": { "type": "Point", "coordinates": [ -115.350292653094996, 52.205284466334803 ] } },
{ "type": "Feature", "properties": { "OBJECTID": 930772, "Name_e": "Swan Lake", "Nom_f": null, "Noms_Alt_Names": null, "Description": "", "min_scale_echelle": null, "max_scale_echelle": null, "CONCISCODE": "Lake\/\/Lac" }, "geometry": { "type": "Point", "coordinates": [ -115.180848144205996, 52.119728891813203 ] } },
{ "type": "Feature", "properties": { "OBJECTID": 930773, "Name_e": "Base Line Creek", "Nom_f": null, "Noms_Alt_Names": null, "Description": "", "min_scale_echelle": null, "max_scale_echelle": null, "CONCISCODE": "River\/\/Cours d'eau" }, "geometry": { "type": "Point", "coordinates": [ -115.192792631030997, 52.2069511475365 ] } },
{ "type": "Feature", "properties": { "OBJECTID": 930774, "Name_e": "Tay Lake", "Nom_f": null, "Noms_Alt_Names": null, "Description": "", "min_scale_echelle": null, "max_scale_echelle": null, "CONCISCODE": "Lake\/\/Lac" }, "geometry": { "type": "Point", "coordinates": [ -115.120848104808999, 52.0663955951822 ] } },
{ "type": "Feature", "properties": { "OBJECTID": 930775, "Name_e": "Tay River", "Nom_f": null, "Noms_Alt_Names": null, "Description": "", "min_scale_echelle": null, "max_scale_echelle": null, "CONCISCODE": "River\/\/Cours d'eau" }, "geometry": { "type": "Point", "coordinates": [ -115.0925147401, 52.043062222063597 ] } },
{ "type": "Feature", "properties": { "OBJECTID": 930776, "Name_e": "Alford Lake", "Nom_f": null, "Noms_Alt_Names": null, "Description": "", "min_scale_echelle": null, "max_scale_echelle": null, "CONCISCODE": "Lake\/\/Lac" }, "geometry": { "type": "Point", "coordinates": [ -115.083314767301005, 52.066706693253501 ] } },
{ "type": "Feature", "properties": { "OBJECTID": 930777, "Name_e": "Phyllis Lake", "Nom_f": null, "Noms_Alt_Names": null, "Description": "", "min_scale_echelle": null, "max_scale_echelle": null, "CONCISCODE": "Lake\/\/Lac" }, "geometry": { "type": "Point", "coordinates": [ -114.968348071771004, 52.100006711017201 ] } },
{ "type": "Feature", "properties": { "OBJECTID": 930778, "Name_e": "Moosewallow Creek", "Nom_f": null, "Noms_Alt_Names": null, "Description": "", "min_scale_echelle": null, "max_scale_echelle": null, "CONCISCODE": "River\/\/Cours d'eau" }, "geometry": { "type": "Point", "coordinates": [ -115.110848115752006, 52.203895618426301 ] } },
{ "type": "Feature", "properties": { "OBJECTID": 930779, "Name_e": "Matts Creek", "Nom_f": null, "Noms_Alt_Names": null, "Description": "", "min_scale_echelle": null, "max_scale_echelle": null, "CONCISCODE": "River\/\/Cours d'eau" }, "geometry": { "type": "Point", "coordinates": [ -114.996125892779006, 52.165562252043301 ] } },
{ "type": "Feature", "properties": { "OBJECTID": 930780, "Name_e": "Strubel Lake", "Nom_f": null, "Noms_Alt_Names": null, "Description": "", "min_scale_echelle": null, "max_scale_echelle": null, "CONCISCODE": "Lake\/\/Lac" }, "geometry": { "type": "Point", "coordinates": [ -115.001125873670006, 52.203617849053003 ] } },
{ "type": "Feature", "properties": { "OBJECTID": 930781, "Name_e": "Buster Creek", "Nom_f": null, "Noms_Alt_Names": null, "Description": "", "min_scale_echelle": null, "max_scale_echelle": null, "CONCISCODE": "River\/\/Cours d'eau" }, "geometry": { "type": "Point", "coordinates": [ -114.996681562947998, 52.541395664856097 ] } },
{ "type": "Feature", "properties": { "OBJECTID": 930782, "Name_e": "Little Beaver Creek", "Nom_f": null, "Noms_Alt_Names": null, "Description": "", "min_scale_echelle": null, "max_scale_echelle": null, "CONCISCODE": "River\/\/Cours d'eau" }, "geometry": { "type": "Point", "coordinates": [ -114.991126037726005, 52.5444512041961 ] } },
{ "type": "Feature", "properties": { "OBJECTID": 930783, "Name_e": "Baptiste River", "Nom_f": null, "Noms_Alt_Names": null, "Description": "", "min_scale_echelle": null, "max_scale_echelle": null, "CONCISCODE": "Unincorporated area\/\/Lieu non organisé" }, "geometry": { "type": "Point", "coordinates": [ -115.301182036981999, 52.658478663576801 ] } },
{ "type": "Feature", "properties": { "OBJECTID": 930784, "Name_e": "Deserters Creek", "Nom_f": null, "Noms_Alt_Names": null, "Description": "", "min_scale_echelle": null, "max_scale_echelle": null, "CONCISCODE": "River\/\/Cours d'eau" }, "geometry": { "type": "Point", "coordinates": [ -115.138626061704002, 52.662228914400302 ] } },
{ "type": "Feature", "properties": { "OBJECTID": 930785, "Name_e": "Big Beaver Creek", "Nom_f": null, "Noms_Alt_Names": null, "Description": "", "min_scale_echelle": null, "max_scale_echelle": null, "CONCISCODE": "River\/\/Cours d'eau" }, "geometry": { "type": "Point", "coordinates": [ -115.045014910787003, 52.603617877679902 ] } },
{ "type": "Feature", "properties": { "OBJECTID": 930786, "Name_e": "No Name Creek", "Nom_f": null, "Noms_Alt_Names": null, "Description": "", "min_scale_echelle": null, "max_scale_echelle": null, "CONCISCODE": "River\/\/Cours d'eau" }, "geometry": { "type": "Point", "coordinates": [ -115.099181653171001, 52.656395616868799 ] } },
{ "type": "Feature", "properties": { "OBJECTID": 930787, "Name_e": "Rocky Children's Pond", "Nom_f": null, "Noms_Alt_Names": null, "Description": "", "min_scale_echelle": null, "max_scale_echelle": null, "CONCISCODE": "Lake\/\/Lac" }, "geometry": { "type": "Point", "coordinates": [ -114.949459207293003, 52.398062262755701 ] } },
{ "type": "Feature", "properties": { "OBJECTID": 930788, "Name_e": "Stevens Creek", "Nom_f": null, "Noms_Alt_Names": null, "Description": "", "min_scale_echelle": null, "max_scale_echelle": null, "CONCISCODE": "River\/\/Cours d'eau" }, "geometry": { "type": "Point", "coordinates": [ -115.855015173793007, 52.736395522318404 ] } },
{ "type": "Feature", "properties": { "OBJECTID": 930789, "Name_e": "Grey Owl Creek", "Nom_f": null, "Noms_Alt_Names": null, "Description": "", "min_scale_echelle": null, "max_scale_echelle": null, "CONCISCODE": "River\/\/Cours d'eau" }, "geometry": { "type": "Point", "coordinates": [ -115.786126226619004, 52.743895568333997 ] } },
{ "type": "Feature", "properties": { "OBJECTID": 930790, "Name_e": "Sylvester Creek", "Nom_f": null, "Noms_Alt_Names": null, "Description": "", "min_scale_echelle": null, "max_scale_echelle": null, "CONCISCODE": "River\/\/Cours d'eau" }, "geometry": { "type": "Point", "coordinates": [ -115.651681823768001, 52.778617793549998 ] } },
{ "type": "Feature", "properties": { "OBJECTID": 930791, "Name_e": "Fall Creek", "Nom_f": null, "Noms_Alt_Names": null, "Description": "", "min_scale_echelle": null, "max_scale_echelle": null, "CONCISCODE": "River\/\/Cours d'eau" }, "geometry": { "type": "Point", "coordinates": [ -115.552237147710002, 52.264173350161101 ] } },
{ "type": "Feature", "properties": { "OBJECTID": 930792, "Name_e": "Tawadina Creek", "Nom_f": null, "Noms_Alt_Names": null, "Description": "", "min_scale_echelle": null, "max_scale_echelle": null, "CONCISCODE": "River\/\/Cours d'eau" }, "geometry": { "type": "Point", "coordinates": [ -115.555292708159996, 52.311951128532698 ] } },
{ "type": "Feature", "properties": { "OBJECTID": 930793, "Name_e": "Makwa Creek", "Nom_f": null, "Noms_Alt_Names": null, "Description": "", "min_scale_echelle": null, "max_scale_echelle": null, "CONCISCODE": "River\/\/Cours d'eau" }, "geometry": { "type": "Point", "coordinates": [ -115.498903851381002, 52.298895565248301 ] } },
{ "type": "Feature", "properties": { "OBJECTID": 930794, "Name_e": "Meadows Creek", "Nom_f": null, "Noms_Alt_Names": null, "Description": "", "min_scale_echelle": null, "max_scale_echelle": null, "CONCISCODE": "River\/\/Cours d'eau" }, "geometry": { "type": "Point", "coordinates": [ -115.573348263822993, 52.362506661911297 ] } },
{ "type": "Feature", "properties": { "OBJECTID": 930795, "Name_e": "Dry Creek", "Nom_f": null, "Noms_Alt_Names": null, "Description": "", "min_scale_echelle": null, "max_scale_echelle": null, "CONCISCODE": "River\/\/Cours d'eau" }, "geometry": { "type": "Point", "coordinates": [ -115.360292697080993, 52.245562194339499 ] } },
{ "type": "Feature", "properties": { "OBJECTID": 930796, "Name_e": "Ram River", "Nom_f": null, "Noms_Alt_Names": null, "Description": "", "min_scale_echelle": null, "max_scale_echelle": null, "CONCISCODE": "River\/\/Cours d'eau" }, "geometry": { "type": "Point", "coordinates": [ -115.414181592378, 52.375840026434297 ] } },
{ "type": "Feature", "properties": { "OBJECTID": 930797, "Name_e": "Lick Creek", "Nom_f": null, "Noms_Alt_Names": null, "Description": "", "min_scale_echelle": null, "max_scale_echelle": null, "CONCISCODE": "River\/\/Cours d'eau" }, "geometry": { "type": "Point", "coordinates": [ -115.298348153559004, 52.2513955922145 ] } },
{ "type": "Feature", "properties": { "OBJECTID": 930798, "Name_e": "Skunk Creek", "Nom_f": null, "Noms_Alt_Names": null, "Description": "", "min_scale_echelle": null, "max_scale_echelle": null, "CONCISCODE": "River\/\/Cours d'eau" }, "geometry": { "type": "Point", "coordinates": [ -115.278070489892997, 52.259728883665801 ] } },
{ "type": "Feature", "properties": { "OBJECTID": 930799, "Name_e": "Rat Lake", "Nom_f": null, "Noms_Alt_Names": null, "Description": "", "min_scale_echelle": null, "max_scale_echelle": null, "CONCISCODE": "Lake\/\/Lac" }, "geometry": { "type": "Point", "coordinates": [ -115.184181583295, 52.247228877666899 ] } },
{ "type": "Feature", "properties": { "OBJECTID": 930800, "Name_e": "North Prairie Creek", "Nom_f": null, "Noms_Alt_Names": null, "Description": "", "min_scale_echelle": null, "max_scale_echelle": null, "CONCISCODE": "River\/\/Cours d'eau" }, "geometry": { "type": "Point", "coordinates": [ -115.158903770942004, 52.269728922310499 ] } },
{ "type": "Feature", "properties": { "OBJECTID": 930801, "Name_e": "Vetch Creek", "Nom_f": null, "Noms_Alt_Names": null, "Description": "", "min_scale_echelle": null, "max_scale_echelle": null, "CONCISCODE": "River\/\/Cours d'eau" }, "geometry": { "type": "Point", "coordinates": [ -115.081681520467001, 52.212506686416503 ] } },
{ "type": "Feature", "properties": { "OBJECTID": 930802, "Name_e": "Strachan", "Nom_f": null, "Noms_Alt_Names": null, "Description": "", "min_scale_echelle": null, "max_scale_echelle": null, "CONCISCODE": "Unincorporated area\/\/Lieu non organisé" }, "geometry": { "type": "Point", "coordinates": [ -115.131403749599997, 52.260284453536997 ] } },
{ "type": "Feature", "properties": { "OBJECTID": 930803, "Name_e": "Cranberry Creek", "Nom_f": null, "Noms_Alt_Names": null, "Description": "", "min_scale_echelle": null, "max_scale_echelle": null, "CONCISCODE": "River\/\/Cours d'eau" }, "geometry": { "type": "Point", "coordinates": [ -114.929737122361004, 52.789729014542701 ] } },
{ "type": "Feature", "properties": { "OBJECTID": 930804, "Name_e": "Cranberry Lake", "Nom_f": null, "Noms_Alt_Names": null, "Description": "", "min_scale_echelle": null, "max_scale_echelle": null, "CONCISCODE": "Lake\/\/Lac" }, "geometry": { "type": "Point", "coordinates": [ -114.805014972270996, 52.800840080616702 ] } },
{ "type": "Feature", "properties": { "OBJECTID": 930805, "Name_e": "Blindtrail Lake", "Nom_f": null, "Noms_Alt_Names": null, "Description": "", "min_scale_echelle": null, "max_scale_echelle": null, "CONCISCODE": "Lake\/\/Lac" }, "geometry": { "type": "Point", "coordinates": [ -114.794737162664006, 52.8086179020261 ] } },
{ "type": "Feature", "properties": { "OBJECTID": 930806, "Name_e": "Medicine Lake", "Nom_f": null, "Noms_Alt_Names": null, "Description": "", "min_scale_echelle": null, "max_scale_echelle": null, "CONCISCODE": "Lake\/\/Lac" }, "geometry": { "type": "Point", "coordinates": [ -114.742792715882004, 52.7441734691634 ] } },
{ "type": "Feature", "properties": { "OBJECTID": 930807, "Name_e": "Gosling Lake", "Nom_f": null, "Noms_Alt_Names": null, "Description": "", "min_scale_echelle": null, "max_scale_echelle": null, "CONCISCODE": "Lake\/\/Lac" }, "geometry": { "type": "Point", "coordinates": [ -114.764459376580007, 52.800284533540598 ] } },
{ "type": "Feature", "properties": { "OBJECTID": 930808, "Name_e": "Ille Lake", "Nom_f": null, "Noms_Alt_Names": null, "Description": "", "min_scale_echelle": null, "max_scale_echelle": null, "CONCISCODE": "Lake\/\/Lac" }, "geometry": { "type": "Point", "coordinates": [ -114.689737132126993, 52.838340139306403 ] } },
{ "type": "Feature", "properties": { "OBJECTID": 930809, "Name_e": "Rough Creek", "Nom_f": null, "Noms_Alt_Names": null, "Description": "", "min_scale_echelle": null, "max_scale_echelle": null, "CONCISCODE": "River\/\/Cours d'eau" }, "geometry": { "type": "Point", "coordinates": [ -115.482792771156994, 52.393062226595802 ] } },
{ "type": "Feature", "properties": { "OBJECTID": 930810, "Name_e": "Lewis Creek", "Nom_f": null, "Noms_Alt_Names": null, "Description": "", "min_scale_echelle": null, "max_scale_echelle": null, "CONCISCODE": "River\/\/Cours d'eau" }, "geometry": { "type": "Point", "coordinates": [ -115.478348270203995, 52.408062235941301 ] } },
{ "type": "Feature", "properties": { "OBJECTID": 930811, "Name_e": "Trout Creek", "Nom_f": null, "Noms_Alt_Names": null, "Description": "", "min_scale_echelle": null, "max_scale_echelle": null, "CONCISCODE": "River\/\/Cours d'eau" }, "geometry": { "type": "Point", "coordinates": [ -115.478626053553995, 52.413617756520303 ] } },
{ "type": "Feature", "properties": { "OBJECTID": 930812, "Name_e": "Chambers Creek", "Nom_f": null, "Noms_Alt_Names": null, "Description": "", "min_scale_echelle": null, "max_scale_echelle": null, "CONCISCODE": "River\/\/Cours d'eau" }, "geometry": { "type": "Point", "coordinates": [ -115.356126057107005, 52.5425067278276 ] } },
{ "type": "Feature", "properties": { "OBJECTID": 930813, "Name_e": "Grace Creek", "Nom_f": null, "Noms_Alt_Names": null, "Description": "", "min_scale_echelle": null, "max_scale_echelle": null, "CONCISCODE": "River\/\/Cours d'eau" }, "geometry": { "type": "Point", "coordinates": [ -115.349181653429, 52.558062284077501 ] } },
{ "type": "Feature", "properties": { "OBJECTID": 930814, "Name_e": "Lawrence Creek", "Nom_f": null, "Noms_Alt_Names": null, "Description": "", "min_scale_echelle": null, "max_scale_echelle": null, "CONCISCODE": "River\/\/Cours d'eau" }, "geometry": { "type": "Point", "coordinates": [ -115.566715030317994, 52.5667066676708 ] } },
{ "type": "Feature", "properties": { "OBJECTID": 930815, "Name_e": "Brewster Creek", "Nom_f": null, "Noms_Alt_Names": null, "Description": "", "min_scale_echelle": null, "max_scale_echelle": null, "CONCISCODE": "River\/\/Cours d'eau" }, "geometry": { "type": "Point", "coordinates": [ -115.373348306463001, 52.6286177933329 ] } },
{ "type": "Feature", "properties": { "OBJECTID": 930816, "Name_e": "Codner", "Nom_f": null, "Noms_Alt_Names": null, "Description": "", "min_scale_echelle": null, "max_scale_echelle": null, "CONCISCODE": "Unincorporated area\/\/Lieu non organisé" }, "geometry": { "type": "Point", "coordinates": [ -114.800014778879998, 52.389728996692 ] } },
{ "type": "Feature", "properties": { "OBJECTID": 930817, "Name_e": "Bingley", "Nom_f": null, "Noms_Alt_Names": null, "Description": "", "min_scale_echelle": null, "max_scale_echelle": null, "CONCISCODE": "Unincorporated area\/\/Lieu non organisé" }, "geometry": { "type": "Point", "coordinates": [ -114.785570437058993, 52.457228971855002 ] } },
{ "type": "Feature", "properties": { "OBJECTID": 930818, "Name_e": "East Lobstick Creek", "Nom_f": null, "Noms_Alt_Names": null, "Description": "", "min_scale_echelle": null, "max_scale_echelle": null, "CONCISCODE": "River\/\/Cours d'eau" }, "geometry": { "type": "Point", "coordinates": [ -114.752514807894002, 52.495006802499297 ] } },
{ "type": "Feature", "properties": { "OBJECTID": 930819, "Name_e": "West Lobstick Creek", "Nom_f": null, "Noms_Alt_Names": null, "Description": "", "min_scale_echelle": null, "max_scale_echelle": null, "CONCISCODE": "River\/\/Cours d'eau" }, "geometry": { "type": "Point", "coordinates": [ -114.752514807894002, 52.495006802499297 ] } },
{ "type": "Feature", "properties": { "OBJECTID": 930820, "Name_e": "Carlos", "Nom_f": null, "Noms_Alt_Names": null, "Description": "", "min_scale_echelle": null, "max_scale_echelle": null, "CONCISCODE": "Unincorporated area\/\/Lieu non organisé" }, "geometry": { "type": "Point", "coordinates": [ -114.636125962993006, 52.552784534954498 ] } },
{ "type": "Feature", "properties": { "OBJECTID": 930821, "Name_e": "Leslieville", "Nom_f": null, "Noms_Alt_Names": null, "Description": "", "min_scale_echelle": null, "max_scale_echelle": null, "CONCISCODE": "Unincorporated area\/\/Lieu non organisé" }, "geometry": { "type": "Point", "coordinates": [ -114.604736932303993, 52.383340080739899 ] } },
{ "type": "Feature", "properties": { "OBJECTID": 930822, "Name_e": "Withrow", "Nom_f": null, "Noms_Alt_Names": null, "Description": "", "min_scale_echelle": null, "max_scale_echelle": null, "CONCISCODE": "Unincorporated area\/\/Lieu non organisé" }, "geometry": { "type": "Point", "coordinates": [ -114.500014741742007, 52.3833067804945 ] } },
{ "type": "Feature", "properties": { "OBJECTID": 930823, "Name_e": "Welch Creek", "Nom_f": null, "Noms_Alt_Names": null, "Description": "", "min_scale_echelle": null, "max_scale_echelle": null, "CONCISCODE": "River\/\/Cours d'eau" }, "geometry": { "type": "Point", "coordinates": [ -114.474736988201002, 52.541951195142097 ] } },
{ "type": "Feature", "properties": { "OBJECTID": 930824, "Name_e": "Block Creek", "Nom_f": null, "Noms_Alt_Names": null, "Description": "", "min_scale_echelle": null, "max_scale_echelle": null, "CONCISCODE": "River\/\/Cours d'eau" }, "geometry": { "type": "Point", "coordinates": [ -114.553625897534999, 52.578340131099999 ] } },
{ "type": "Feature", "properties": { "OBJECTID": 930825, "Name_e": "Hale Lake", "Nom_f": null, "Noms_Alt_Names": null, "Description": "", "min_scale_echelle": null, "max_scale_echelle": null, "CONCISCODE": "Lake\/\/Lac" }, "geometry": { "type": "Point", "coordinates": [ -114.552514650484994, 52.141951235969501 ] } },
{ "type": "Feature", "properties": { "OBJECTID": 930826, "Name_e": "Stauffer", "Nom_f": null, "Noms_Alt_Names": null, "Description": "", "min_scale_echelle": null, "max_scale_echelle": null, "CONCISCODE": "Unincorporated area\/\/Lieu non organisé" }, "geometry": { "type": "Point", "coordinates": [ -114.597514677950997, 52.173895665992298 ] } },
{ "type": "Feature", "properties": { "OBJECTID": 930827, "Name_e": "Evergreen", "Nom_f": null, "Noms_Alt_Names": null, "Description": "", "min_scale_echelle": null, "max_scale_echelle": null, "CONCISCODE": "Unincorporated area\/\/Lieu non organisé" }, "geometry": { "type": "Point", "coordinates": [ -114.538625783203997, 52.232228944937702 ] } },
{ "type": "Feature", "properties": { "OBJECTID": 930828, "Name_e": "Condor", "Nom_f": null, "Noms_Alt_Names": null, "Description": "", "min_scale_echelle": null, "max_scale_echelle": null, "CONCISCODE": "Unincorporated area\/\/Lieu non organisé" }, "geometry": { "type": "Point", "coordinates": [ -114.555292554301005, 52.326395696727197 ] } },
{ "type": "Feature", "properties": { "OBJECTID": 930829, "Name_e": "Lobstick Creek", "Nom_f": null, "Noms_Alt_Names": null, "Description": "", "min_scale_echelle": null, "max_scale_echelle": null, "CONCISCODE": "River\/\/Cours d'eau" }, "geometry": { "type": "Point", "coordinates": [ -114.567792590107999, 52.363895656405802 ] } },
{ "type": "Feature", "properties": { "OBJECTID": 930830, "Name_e": "Blueberry Creek", "Nom_f": null, "Noms_Alt_Names": null, "Description": "", "min_scale_echelle": null, "max_scale_echelle": null, "CONCISCODE": "River\/\/Cours d'eau" }, "geometry": { "type": "Point", "coordinates": [ -114.503625843372006, 52.380284548642599 ] } },
{ "type": "Feature", "properties": { "OBJECTID": 930831, "Name_e": "Mitchell Lake", "Nom_f": null, "Noms_Alt_Names": null, "Description": "", "min_scale_echelle": null, "max_scale_echelle": null, "CONCISCODE": "Lake\/\/Lac" }, "geometry": { "type": "Point", "coordinates": [ -115.007236961201997, 52.216395557561697 ] } },
{ "type": "Feature", "properties": { "OBJECTID": 930832, "Name_e": "Congresbury", "Nom_f": null, "Noms_Alt_Names": null, "Description": "", "min_scale_echelle": null, "max_scale_echelle": null, "CONCISCODE": "Unincorporated area\/\/Lieu non organisé" }, "geometry": { "type": "Point", "coordinates": [ -114.966681534578001, 52.2333400891523 ] } },
{ "type": "Feature", "properties": { "OBJECTID": 930833, "Name_e": "Cow Lake", "Nom_f": null, "Noms_Alt_Names": null, "Description": "", "min_scale_echelle": null, "max_scale_echelle": null, "CONCISCODE": "Lake\/\/Lac" }, "geometry": { "type": "Point", "coordinates": [ -115.014181549941995, 52.27056227357 ] } },
{ "type": "Feature", "properties": { "OBJECTID": 930834, "Name_e": "Heifer Creek", "Nom_f": null, "Noms_Alt_Names": null, "Description": "", "min_scale_echelle": null, "max_scale_echelle": null, "CONCISCODE": "River\/\/Cours d'eau" }, "geometry": { "type": "Point", "coordinates": [ -115.100014842434007, 52.300006706839802 ] } },
{ "type": "Feature", "properties": { "OBJECTID": 930835, "Name_e": "Cow Creek", "Nom_f": null, "Noms_Alt_Names": null, "Description": "", "min_scale_echelle": null, "max_scale_echelle": null, "CONCISCODE": "River\/\/Cours d'eau" }, "geometry": { "type": "Point", "coordinates": [ -115.091403736987004, 52.3577845217836 ] } },
{ "type": "Feature", "properties": { "OBJECTID": 930836, "Name_e": "Ullin", "Nom_f": null, "Noms_Alt_Names": null, "Description": "", "min_scale_echelle": null, "max_scale_echelle": null, "CONCISCODE": "Unincorporated area\/\/Lieu non organisé" }, "geometry": { "type": "Point", "coordinates": [ -115.016714847551995, 52.366706721620098 ] } },
{ "type": "Feature", "properties": { "OBJECTID": 930837, "Name_e": "Ricinus", "Nom_f": null, "Noms_Alt_Names": null, "Description": "", "min_scale_echelle": null, "max_scale_echelle": null, "CONCISCODE": "Unincorporated area\/\/Lieu non organisé" }, "geometry": { "type": "Point", "coordinates": [ -114.948903640268, 52.0855622679655 ] } },
{ "type": "Feature", "properties": { "OBJECTID": 930838, "Name_e": "Alford Creek", "Nom_f": null, "Noms_Alt_Names": null, "Description": "", "min_scale_echelle": null, "max_scale_echelle": null, "CONCISCODE": "River\/\/Cours d'eau" }, "geometry": { "type": "Point", "coordinates": [ -114.880570327973999, 52.084728941834399 ] } },
{ "type": "Feature", "properties": { "OBJECTID": 930839, "Name_e": "Chedderville", "Nom_f": null, "Noms_Alt_Names": null, "Description": "", "min_scale_echelle": null, "max_scale_echelle": null, "CONCISCODE": "Unincorporated area\/\/Lieu non organisé" }, "geometry": { "type": "Point", "coordinates": [ -114.834459145040995, 52.174173414237003 ] } },
{ "type": "Feature", "properties": { "OBJECTID": 930840, "Name_e": "Beaver Creek", "Nom_f": null, "Noms_Alt_Names": null, "Description": "", "min_scale_echelle": null, "max_scale_echelle": null, "CONCISCODE": "River\/\/Cours d'eau" }, "geometry": { "type": "Point", "coordinates": [ -114.681959067370002, 52.064451217460999 ] } },
{ "type": "Feature", "properties": { "OBJECTID": 930841, "Name_e": "Mud Creek", "Nom_f": null, "Noms_Alt_Names": null, "Description": "", "min_scale_echelle": null, "max_scale_echelle": null, "CONCISCODE": "River\/\/Cours d'eau" }, "geometry": { "type": "Point", "coordinates": [ -114.771403664961994, 52.168895589114904 ] } },
{ "type": "Feature", "properties": { "OBJECTID": 930842, "Name_e": "Butte", "Nom_f": null, "Noms_Alt_Names": null, "Description": "", "min_scale_echelle": null, "max_scale_echelle": null, "CONCISCODE": "Unincorporated area\/\/Lieu non organisé" }, "geometry": { "type": "Point", "coordinates": [ -114.728070316287997, 52.188340106574898 ] } },
{ "type": "Feature", "properties": { "OBJECTID": 930843, "Name_e": "Dovercourt", "Nom_f": null, "Noms_Alt_Names": null, "Description": "", "min_scale_echelle": null, "max_scale_echelle": null, "CONCISCODE": "Unincorporated area\/\/Lieu non organisé" }, "geometry": { "type": "Point", "coordinates": [ -114.859736985165, 52.244451152932101 ] } },
{ "type": "Feature", "properties": { "OBJECTID": 930844, "Name_e": "Prairie Creek", "Nom_f": null, "Noms_Alt_Names": null, "Description": "", "min_scale_echelle": null, "max_scale_echelle": null, "CONCISCODE": "River\/\/Cours d'eau" }, "geometry": { "type": "Point", "coordinates": [ -114.920292586900999, 52.329451188081499 ] } },
{ "type": "Feature", "properties": { "OBJECTID": 930845, "Name_e": "Clearwater River", "Nom_f": null, "Noms_Alt_Names": null, "Description": "", "min_scale_echelle": null, "max_scale_echelle": null, "CONCISCODE": "River\/\/Cours d'eau" }, "geometry": { "type": "Point", "coordinates": [ -114.947792616496002, 52.361951177392299 ] } },
{ "type": "Feature", "properties": { "OBJECTID": 930846, "Name_e": "Colt Creek", "Nom_f": null, "Noms_Alt_Names": null, "Description": "", "min_scale_echelle": null, "max_scale_echelle": null, "CONCISCODE": "River\/\/Cours d'eau" }, "geometry": { "type": "Point", "coordinates": [ -116.056126222567997, 52.661951028418002 ] } },
{ "type": "Feature", "properties": { "OBJECTID": 930847, "Name_e": "Hummingbird Creek", "Nom_f": null, "Noms_Alt_Names": null, "Description": "", "min_scale_echelle": null, "max_scale_echelle": null, "CONCISCODE": "River\/\/Cours d'eau" }, "geometry": { "type": "Point", "coordinates": [ -115.933314949920003, 52.083306597418499 ] } },
{ "type": "Feature", "properties": { "OBJECTID": 930848, "Name_e": "Otter Creek", "Nom_f": null, "Noms_Alt_Names": null, "Description": "", "min_scale_echelle": null, "max_scale_echelle": null, "CONCISCODE": "River\/\/Cours d'eau" }, "geometry": { "type": "Point", "coordinates": [ -115.983348334257002, 52.191395498385702 ] } },
{ "type": "Feature", "properties": { "OBJECTID": 930849, "Name_e": "Ram Falls", "Nom_f": null, "Noms_Alt_Names": null, "Description": "", "min_scale_echelle": null, "max_scale_echelle": null, "CONCISCODE": "Falls\/\/Chute" }, "geometry": { "type": "Point", "coordinates": [ -115.838903856448994, 52.088339926347203 ] } },
{ "type": "Feature", "properties": { "OBJECTID": 930850, "Name_e": "Ram Falls Provincial Park", "Nom_f": "Ram Falls", "Noms_Alt_Names": null, "Description": "", "min_scale_echelle": null, "max_scale_echelle": null, "CONCISCODE": "Conservation area\/\/Zone de préservation" }, "geometry": { "type": "Point", "coordinates": [ -115.839214937508004, 52.096906608786703 ] } },
{ "type": "Feature", "properties": { "OBJECTID": 930851, "Name_e": "Lynx Creek", "Nom_f": null, "Noms_Alt_Names": null, "Description": "", "min_scale_echelle": null, "max_scale_echelle": null, "CONCISCODE": "River\/\/Cours d'eau" }, "geometry": { "type": "Point", "coordinates": [ -115.747514956781998, 52.118617714862999 ] } },
{ "type": "Feature", "properties": { "OBJECTID": 930852, "Name_e": "Ranger Creek", "Nom_f": null, "Noms_Alt_Names": null, "Description": "", "min_scale_echelle": null, "max_scale_echelle": null, "CONCISCODE": "River\/\/Cours d'eau" }, "geometry": { "type": "Point", "coordinates": [ -115.930848220460007, 52.023895476842299 ] } },
{ "type": "Feature", "properties": { "OBJECTID": 930853, "Name_e": "Washout Creek", "Nom_f": null, "Noms_Alt_Names": null, "Description": "", "min_scale_echelle": null, "max_scale_echelle": null, "CONCISCODE": "River\/\/Cours d'eau" }, "geometry": { "type": "Point", "coordinates": [ -115.721959245570005, 52.001395542955002 ] } },
{ "type": "Feature", "properties": { "OBJECTID": 930854, "Name_e": "Side Creek", "Nom_f": null, "Noms_Alt_Names": null, "Description": "", "min_scale_echelle": null, "max_scale_echelle": null, "CONCISCODE": "River\/\/Cours d'eau" }, "geometry": { "type": "Point", "coordinates": [ -115.967792781181004, 52.209173266946301 ] } },
{ "type": "Feature", "properties": { "OBJECTID": 930855, "Name_e": "Lynch Creek", "Nom_f": null, "Noms_Alt_Names": null, "Description": "", "min_scale_echelle": null, "max_scale_echelle": null, "CONCISCODE": "River\/\/Cours d'eau" }, "geometry": { "type": "Point", "coordinates": [ -115.968626131229001, 52.276673234198 ] } },
{ "type": "Feature", "properties": { "OBJECTID": 930856, "Name_e": "Philip Creek", "Nom_f": null, "Noms_Alt_Names": null, "Description": "", "min_scale_echelle": null, "max_scale_echelle": null, "CONCISCODE": "River\/\/Cours d'eau" }, "geometry": { "type": "Point", "coordinates": [ -115.911959427116997, 52.265562194554697 ] } },
{ "type": "Feature", "properties": { "OBJECTID": 930857, "Name_e": "Cripple Creek", "Nom_f": null, "Noms_Alt_Names": null, "Description": "", "min_scale_echelle": null, "max_scale_echelle": null, "CONCISCODE": "River\/\/Cours d'eau" }, "geometry": { "type": "Point", "coordinates": [ -115.883626065651995, 52.258062149132101 ] } },
{ "type": "Feature", "properties": { "OBJECTID": 930858, "Name_e": "Jock Lake", "Nom_f": null, "Noms_Alt_Names": null, "Description": "", "min_scale_echelle": null, "max_scale_echelle": null, "CONCISCODE": "Lake\/\/Lac" }, "geometry": { "type": "Point", "coordinates": [ -115.968626142708004, 52.312506632059197 ] } },
{ "type": "Feature", "properties": { "OBJECTID": 930859, "Name_e": "Nice Creek", "Nom_f": null, "Noms_Alt_Names": null, "Description": "", "min_scale_echelle": null, "max_scale_echelle": null, "CONCISCODE": "River\/\/Cours d'eau" }, "geometry": { "type": "Point", "coordinates": [ -115.809737147983, 52.270006627357098 ] } },
{ "type": "Feature", "properties": { "OBJECTID": 930860, "Name_e": "Dutch Creek", "Nom_f": null, "Noms_Alt_Names": null, "Description": "", "min_scale_echelle": null, "max_scale_echelle": null, "CONCISCODE": "River\/\/Cours d'eau" }, "geometry": { "type": "Point", "coordinates": [ -115.938070693179995, 52.392506620460203 ] } },
{ "type": "Feature", "properties": { "OBJECTID": 930861, "Name_e": "Jock Creek", "Nom_f": null, "Noms_Alt_Names": null, "Description": "", "min_scale_echelle": null, "max_scale_echelle": null, "CONCISCODE": "River\/\/Cours d'eau" }, "geometry": { "type": "Point", "coordinates": [ -115.913070650910001, 52.392784399203897 ] } },
{ "type": "Feature", "properties": { "OBJECTID": 930862, "Name_e": "Gap Creek", "Nom_f": null, "Noms_Alt_Names": null, "Description": "", "min_scale_echelle": null, "max_scale_echelle": null, "CONCISCODE": "River\/\/Cours d'eau" }, "geometry": { "type": "Point", "coordinates": [ -115.907237264401004, 52.3941732867209 ] } },
{ "type": "Feature", "properties": { "OBJECTID": 930863, "Name_e": "The Gap", "Nom_f": null, "Noms_Alt_Names": null, "Description": "", "min_scale_echelle": null, "max_scale_echelle": null, "CONCISCODE": "Valley\/\/Vallée" }, "geometry": { "type": "Point", "coordinates": [ -115.883315042874997, 52.4000066179157 ] } },
{ "type": "Feature", "properties": { "OBJECTID": 930864, "Name_e": "Harlech", "Nom_f": null, "Noms_Alt_Names": null, "Description": "", "min_scale_echelle": null, "max_scale_echelle": null, "CONCISCODE": "Unincorporated area\/\/Lieu non organisé" }, "geometry": { "type": "Point", "coordinates": [ -115.955570723902994, 52.5113955392262 ] } },
{ "type": "Feature", "properties": { "OBJECTID": 930865, "Name_e": "Dizzy Creek", "Nom_f": null, "Noms_Alt_Names": null, "Description": "", "min_scale_echelle": null, "max_scale_echelle": null, "CONCISCODE": "River\/\/Cours d'eau" }, "geometry": { "type": "Point", "coordinates": [ -115.839181735940997, 52.417228804936897 ] } },
{ "type": "Feature", "properties": { "OBJECTID": 930866, "Name_e": "Deep Creek", "Nom_f": null, "Noms_Alt_Names": null, "Description": "", "min_scale_echelle": null, "max_scale_echelle": null, "CONCISCODE": "River\/\/Cours d'eau" }, "geometry": { "type": "Point", "coordinates": [ -115.835570648974993, 52.418895546766898 ] } },
{ "type": "Feature", "properties": { "OBJECTID": 930867, "Name_e": "Taunton Creek", "Nom_f": null, "Noms_Alt_Names": null, "Description": "", "min_scale_echelle": null, "max_scale_echelle": null, "CONCISCODE": "River\/\/Cours d'eau" }, "geometry": { "type": "Point", "coordinates": [ -115.765015048595998, 52.455284421979499 ] } },
{ "type": "Feature", "properties": { "OBJECTID": 930868, "Name_e": "Saunders Creek", "Nom_f": null, "Noms_Alt_Names": null, "Description": "", "min_scale_echelle": null, "max_scale_echelle": null, "CONCISCODE": "River\/\/Cours d'eau" }, "geometry": { "type": "Point", "coordinates": [ -115.719737260553998, 52.453339988161702 ] } },
{ "type": "Feature", "properties": { "OBJECTID": 930869, "Name_e": "Slippery Creek", "Nom_f": null, "Noms_Alt_Names": null, "Description": "", "min_scale_echelle": null, "max_scale_echelle": null, "CONCISCODE": "River\/\/Cours d'eau" }, "geometry": { "type": "Point", "coordinates": [ -115.706126135218, 52.449728902888097 ] } },
{ "type": "Feature", "properties": { "OBJECTID": 930870, "Name_e": "Stolberg", "Nom_f": null, "Noms_Alt_Names": null, "Description": "", "min_scale_echelle": null, "max_scale_echelle": null, "CONCISCODE": "Unincorporated area\/\/Lieu non organisé" }, "geometry": { "type": "Point", "coordinates": [ -115.825015083881993, 52.478617706339698 ] } },
{ "type": "Feature", "properties": { "OBJECTID": 930871, "Name_e": "Alexo", "Nom_f": null, "Noms_Alt_Names": null, "Description": "", "min_scale_echelle": null, "max_scale_echelle": null, "CONCISCODE": "Unincorporated area\/\/Lieu non organisé" }, "geometry": { "type": "Point", "coordinates": [ -115.783070601229994, 52.475284390683498 ] } },
{ "type": "Feature", "properties": { "OBJECTID": 930872, "Name_e": "Cutoff Creek", "Nom_f": null, "Noms_Alt_Names": null, "Description": "", "min_scale_echelle": null, "max_scale_echelle": null, "CONCISCODE": "River\/\/Cours d'eau" }, "geometry": { "type": "Point", "coordinates": [ -115.482514871944005, 52.002506671345103 ] } },
{ "type": "Feature", "properties": { "OBJECTID": 930873, "Name_e": "Seven Mile Creek", "Nom_f": null, "Noms_Alt_Names": null, "Description": "", "min_scale_echelle": null, "max_scale_echelle": null, "CONCISCODE": "River\/\/Cours d'eau" }, "geometry": { "type": "Point", "coordinates": [ -115.325014765711003, 51.984451063131402 ] } },
{ "type": "Feature", "properties": { "OBJECTID": 930874, "Name_e": "Crammond", "Nom_f": null, "Noms_Alt_Names": null, "Description": "", "min_scale_echelle": null, "max_scale_echelle": null, "CONCISCODE": "Unincorporated area\/\/Lieu non organisé" }, "geometry": { "type": "Point", "coordinates": [ -114.669181345926006, 52.028617826309102 ] } },
{ "type": "Feature", "properties": { "OBJECTID": 930875, "Name_e": "Swan Creek", "Nom_f": null, "Noms_Alt_Names": null, "Description": "", "min_scale_echelle": null, "max_scale_echelle": null, "CONCISCODE": "River\/\/Cours d'eau" }, "geometry": { "type": "Point", "coordinates": [ -115.013070425557999, 52.194451152236397 ] } },
{ "type": "Feature", "properties": { "OBJECTID": 930876, "Name_e": "Crimson Lake", "Nom_f": null, "Noms_Alt_Names": null, "Description": "", "min_scale_echelle": null, "max_scale_echelle": null, "CONCISCODE": "Unincorporated area\/\/Lieu non organisé" }, "geometry": { "type": "Point", "coordinates": [ -115.028625979349002, 52.447784464996801 ] } },
{ "type": "Feature", "properties": { "OBJECTID": 930877, "Name_e": "Saunders", "Nom_f": null, "Noms_Alt_Names": null, "Description": "", "min_scale_echelle": null, "max_scale_echelle": null, "CONCISCODE": "Unincorporated area\/\/Lieu non organisé" }, "geometry": { "type": "Point", "coordinates": [ -115.723903906828994, 52.458895513201298 ] } },
{ "type": "Feature", "properties": { "OBJECTID": 930878, "Name_e": "Cold Creek", "Nom_f": null, "Noms_Alt_Names": null, "Description": "", "min_scale_echelle": null, "max_scale_echelle": null, "CONCISCODE": "River\/\/Cours d'eau" }, "geometry": { "type": "Point", "coordinates": [ -115.238903791004006, 52.308339984946201 ] } },
{ "type": "Feature", "properties": { "OBJECTID": 930879, "Name_e": "Jackfish Lake", "Nom_f": null, "Noms_Alt_Names": null, "Description": "", "min_scale_echelle": null, "max_scale_echelle": null, "CONCISCODE": "Lake\/\/Lac" }, "geometry": { "type": "Point", "coordinates": [ -115.568070647572, 52.504173317884899 ] } },
{ "type": "Feature", "properties": { "OBJECTID": 930880, "Name_e": "Bull Creek", "Nom_f": null, "Noms_Alt_Names": null, "Description": "", "min_scale_echelle": null, "max_scale_echelle": null, "CONCISCODE": "River\/\/Cours d'eau" }, "geometry": { "type": "Point", "coordinates": [ -115.105570477314004, 52.310006747537201 ] } },
{ "type": "Feature", "properties": { "OBJECTID": 930881, "Name_e": "Peppers Lake", "Nom_f": null, "Noms_Alt_Names": null, "Description": "", "min_scale_echelle": null, "max_scale_echelle": null, "CONCISCODE": "Lake\/\/Lac" }, "geometry": { "type": "Point", "coordinates": [ -115.705570453966004, 52.038895511290903 ] } },
{ "type": "Feature", "properties": { "OBJECTID": 930882, "Name_e": "McGregor Lake", "Nom_f": null, "Noms_Alt_Names": null, "Description": "", "min_scale_echelle": null, "max_scale_echelle": null, "CONCISCODE": "Lake\/\/Lac" }, "geometry": { "type": "Point", "coordinates": [ -115.842515120157003, 52.614451058224603 ] } },
{ "type": "Feature", "properties": { "OBJECTID": 930883, "Name_e": "Shunda Creek", "Nom_f": null, "Noms_Alt_Names": null, "Description": "", "min_scale_echelle": null, "max_scale_echelle": null, "CONCISCODE": "River\/\/Cours d'eau" }, "geometry": { "type": "Point", "coordinates": [ -115.778903949847006, 52.455284420289601 ] } },
{ "type": "Feature", "properties": { "OBJECTID": 930884, "Name_e": "Flare Creek", "Nom_f": null, "Noms_Alt_Names": null, "Description": "", "min_scale_echelle": null, "max_scale_echelle": null, "CONCISCODE": "River\/\/Cours d'eau" }, "geometry": { "type": "Point", "coordinates": [ -115.251125901631994, 52.171395602874497 ] } },
{ "type": "Feature", "properties": { "OBJECTID": 930885, "Name_e": "Peppers Creek", "Nom_f": null, "Noms_Alt_Names": null, "Description": "", "min_scale_echelle": null, "max_scale_echelle": null, "CONCISCODE": "River\/\/Cours d'eau" }, "geometry": { "type": "Point", "coordinates": [ -115.645570519393999, 52.049451101415698 ] } },
{ "type": "Feature", "properties": { "OBJECTID": 930886, "Name_e": "North Ram River", "Nom_f": null, "Noms_Alt_Names": null, "Description": "", "min_scale_echelle": null, "max_scale_echelle": null, "CONCISCODE": "River\/\/Cours d'eau" }, "geometry": { "type": "Point", "coordinates": [ -115.646403821408001, 52.249728893825697 ] } },
{ "type": "Feature", "properties": { "OBJECTID": 930887, "Name_e": "Canary Creek", "Nom_f": null, "Noms_Alt_Names": null, "Description": "", "min_scale_echelle": null, "max_scale_echelle": null, "CONCISCODE": "River\/\/Cours d'eau" }, "geometry": { "type": "Point", "coordinates": [ -115.989181685125004, 52.077506549313703 ] } },
{ "type": "Feature", "properties": { "OBJECTID": 930888, "Name_e": "Baptiste River", "Nom_f": null, "Noms_Alt_Names": null, "Description": "", "min_scale_echelle": null, "max_scale_echelle": null, "CONCISCODE": "River\/\/Cours d'eau" }, "geometry": { "type": "Point", "coordinates": [ -115.075014945518006, 52.673617838999398 ] } },
{ "type": "Feature", "properties": { "OBJECTID": 930889, "Name_e": "Stewart Creek", "Nom_f": null, "Noms_Alt_Names": null, "Description": "", "min_scale_echelle": null, "max_scale_echelle": null, "CONCISCODE": "River\/\/Cours d'eau" }, "geometry": { "type": "Point", "coordinates": [ -115.295570114810005, 51.050839933013698 ] } },
{ "type": "Feature", "properties": { "OBJECTID": 930890, "Name_e": "Wilson Creek", "Nom_f": null, "Noms_Alt_Names": null, "Description": "", "min_scale_echelle": null, "max_scale_echelle": null, "CONCISCODE": "River\/\/Cours d'eau" }, "geometry": { "type": "Point", "coordinates": [ -116.414459433768997, 52.096951007388903 ] } },
{ "type": "Feature", "properties": { "OBJECTID": 930891, "Name_e": "Coral Creek", "Nom_f": null, "Noms_Alt_Names": null, "Description": "", "min_scale_echelle": null, "max_scale_echelle": null, "CONCISCODE": "River\/\/Cours d'eau" }, "geometry": { "type": "Point", "coordinates": [ -116.505292893895003, 52.160839872847802 ] } },
{ "type": "Feature", "properties": { "OBJECTID": 930892, "Name_e": "Coral Creek Canyon", "Nom_f": null, "Noms_Alt_Names": null, "Description": "", "min_scale_echelle": null, "max_scale_echelle": null, "CONCISCODE": "Valley\/\/Vallée" }, "geometry": { "type": "Point", "coordinates": [ -116.530015077081003, 52.178062088540798 ] } },
{ "type": "Feature", "properties": { "OBJECTID": 930893, "Name_e": "Cline River", "Nom_f": null, "Noms_Alt_Names": null, "Description": "", "min_scale_echelle": null, "max_scale_echelle": null, "CONCISCODE": "River\/\/Cours d'eau" }, "geometry": { "type": "Point", "coordinates": [ -116.480015085031994, 52.171951010706103 ] } },
{ "type": "Feature", "properties": { "OBJECTID": 930894, "Name_e": "Cline River", "Nom_f": null, "Noms_Alt_Names": null, "Description": "", "min_scale_echelle": null, "max_scale_echelle": null, "CONCISCODE": "Unincorporated area\/\/Lieu non organisé" }, "geometry": { "type": "Point", "coordinates": [ -116.478903983631, 52.188617677257803 ] } },
{ "type": "Feature", "properties": { "OBJECTID": 930895, "Name_e": "Whitegoat Lakes", "Nom_f": null, "Noms_Alt_Names": null, "Description": "", "min_scale_echelle": null, "max_scale_echelle": null, "CONCISCODE": "Lake\/\/Lac" }, "geometry": { "type": "Point", "coordinates": [ -116.484737287705997, 52.190839886415397 ] } },
{ "type": "Feature", "properties": { "OBJECTID": 930896, "Name_e": "Whitegoat Creek", "Nom_f": null, "Noms_Alt_Names": null, "Description": "", "min_scale_echelle": null, "max_scale_echelle": null, "CONCISCODE": "River\/\/Cours d'eau" }, "geometry": { "type": "Point", "coordinates": [ -116.465292873270997, 52.213617622954501 ] } },
{ "type": "Feature", "properties": { "OBJECTID": 930897, "Name_e": "Abraham Lake", "Nom_f": null, "Noms_Alt_Names": null, "Description": "", "min_scale_echelle": null, "max_scale_echelle": null, "CONCISCODE": "Lake\/\/Lac" }, "geometry": { "type": "Point", "coordinates": [ -116.427237262684002, 52.223617663115299 ] } },
{ "type": "Feature", "properties": { "OBJECTID": 930898, "Name_e": "Allstones Creek", "Nom_f": null, "Noms_Alt_Names": null, "Description": "", "min_scale_echelle": null, "max_scale_echelle": null, "CONCISCODE": "River\/\/Cours d'eau" }, "geometry": { "type": "Point", "coordinates": [ -116.374737311749001, 52.290284307516799 ] } },
{ "type": "Feature", "properties": { "OBJECTID": 930899, "Name_e": "Allstones Lake", "Nom_f": null, "Noms_Alt_Names": null, "Description": "", "min_scale_echelle": null, "max_scale_echelle": null, "CONCISCODE": "Lake\/\/Lac" }, "geometry": { "type": "Point", "coordinates": [ -116.418626221878995, 52.3025065486815 ] } },
{ "type": "Feature", "properties": { "OBJECTID": 930900, "Name_e": "Farley Lake", "Nom_f": null, "Noms_Alt_Names": null, "Description": "", "min_scale_echelle": null, "max_scale_echelle": null, "CONCISCODE": "Lake\/\/Lac" }, "geometry": { "type": "Point", "coordinates": [ -116.288070611200993, 52.073617641458398 ] } },
{ "type": "Feature", "properties": { "OBJECTID": 930901, "Name_e": "Sturrock Creek", "Nom_f": null, "Noms_Alt_Names": null, "Description": "", "min_scale_echelle": null, "max_scale_echelle": null, "CONCISCODE": "River\/\/Cours d'eau" }, "geometry": { "type": "Point", "coordinates": [ -116.376126277755006, 52.570839871129103 ] } },
{ "type": "Feature", "properties": { "OBJECTID": 930902, "Name_e": "Seepage Creek", "Nom_f": null, "Noms_Alt_Names": null, "Description": "", "min_scale_echelle": null, "max_scale_echelle": null, "CONCISCODE": "River\/\/Cours d'eau" }, "geometry": { "type": "Point", "coordinates": [ -116.436404124147003, 52.7008399146033 ] } },
{ "type": "Feature", "properties": { "OBJECTID": 930903, "Name_e": "Crescent Falls", "Nom_f": null, "Noms_Alt_Names": null, "Description": "", "min_scale_echelle": null, "max_scale_echelle": null, "CONCISCODE": "Falls\/\/Chute" }, "geometry": { "type": "Point", "coordinates": [ -116.354181810224006, 52.387228820683397 ] } },
{ "type": "Feature", "properties": { "OBJECTID": 930904, "Name_e": "Haven Creek", "Nom_f": null, "Noms_Alt_Names": null, "Description": "", "min_scale_echelle": null, "max_scale_echelle": null, "CONCISCODE": "River\/\/Cours d'eau" }, "geometry": { "type": "Point", "coordinates": [ -116.215015115664997, 52.385006543509299 ] } },
{ "type": "Feature", "properties": { "OBJECTID": 930905, "Name_e": "Gonika Creek", "Nom_f": null, "Noms_Alt_Names": null, "Description": "", "min_scale_echelle": null, "max_scale_echelle": null, "CONCISCODE": "River\/\/Cours d'eau" }, "geometry": { "type": "Point", "coordinates": [ -116.207792936651003, 52.422784376118997 ] } },
{ "type": "Feature", "properties": { "OBJECTID": 930906, "Name_e": "Goldeye Lake", "Nom_f": null, "Noms_Alt_Names": null, "Description": "", "min_scale_echelle": null, "max_scale_echelle": null, "CONCISCODE": "Lake\/\/Lac" }, "geometry": { "type": "Point", "coordinates": [ -116.192237303959004, 52.448895510980499 ] } },
{ "type": "Feature", "properties": { "OBJECTID": 930907, "Name_e": "Black Canyon Creek", "Nom_f": null, "Noms_Alt_Names": null, "Description": "", "min_scale_echelle": null, "max_scale_echelle": null, "CONCISCODE": "River\/\/Cours d'eau" }, "geometry": { "type": "Point", "coordinates": [ -116.157515078920994, 52.399451006531201 ] } },
{ "type": "Feature", "properties": { "OBJECTID": 930908, "Name_e": "Shanks Lake", "Nom_f": null, "Noms_Alt_Names": null, "Description": "", "min_scale_echelle": null, "max_scale_echelle": null, "CONCISCODE": "Lake\/\/Lac" }, "geometry": { "type": "Point", "coordinates": [ -116.169459485375995, 52.456395473449099 ] } },
{ "type": "Feature", "properties": { "OBJECTID": 930909, "Name_e": "Shunda Lake", "Nom_f": null, "Noms_Alt_Names": null, "Description": "", "min_scale_echelle": null, "max_scale_echelle": null, "CONCISCODE": "Lake\/\/Lac" }, "geometry": { "type": "Point", "coordinates": [ -116.151404022422, 52.451673284476897 ] } },
{ "type": "Feature", "properties": { "OBJECTID": 930910, "Name_e": "South Creek", "Nom_f": null, "Noms_Alt_Names": null, "Description": "", "min_scale_echelle": null, "max_scale_echelle": null, "CONCISCODE": "River\/\/Cours d'eau" }, "geometry": { "type": "Point", "coordinates": [ -116.065570695456998, 52.398617682816401 ] } },
{ "type": "Feature", "properties": { "OBJECTID": 930911, "Name_e": "Brazeau", "Nom_f": null, "Noms_Alt_Names": null, "Description": "", "min_scale_echelle": null, "max_scale_echelle": null, "CONCISCODE": "Unincorporated area\/\/Lieu non organisé" }, "geometry": { "type": "Point", "coordinates": [ -116.077792880573995, 52.469173277410803 ] } },
{ "type": "Feature", "properties": { "OBJECTID": 930912, "Name_e": "Dog Creek", "Nom_f": null, "Noms_Alt_Names": null, "Description": "", "min_scale_echelle": null, "max_scale_echelle": null, "CONCISCODE": "River\/\/Cours d'eau" }, "geometry": { "type": "Point", "coordinates": [ -116.100015113015999, 52.483306599629799 ] } },
{ "type": "Feature", "properties": { "OBJECTID": 930913, "Name_e": "Stovepipe Creek", "Nom_f": null, "Noms_Alt_Names": null, "Description": "", "min_scale_echelle": null, "max_scale_echelle": null, "CONCISCODE": "River\/\/Cours d'eau" }, "geometry": { "type": "Point", "coordinates": [ -116.300570783046993, 52.576395489610697 ] } },
{ "type": "Feature", "properties": { "OBJECTID": 930914, "Name_e": "Wapiabi Creek", "Nom_f": null, "Noms_Alt_Names": null, "Description": "", "min_scale_echelle": null, "max_scale_echelle": null, "CONCISCODE": "River\/\/Cours d'eau" }, "geometry": { "type": "Point", "coordinates": [ -116.343348522945007, 52.614173221661098 ] } },
{ "type": "Feature", "properties": { "OBJECTID": 930915, "Name_e": "Beaver Flat", "Nom_f": null, "Noms_Alt_Names": null, "Description": "", "min_scale_echelle": null, "max_scale_echelle": null, "CONCISCODE": "Plain\/\/Plaine" }, "geometry": { "type": "Point", "coordinates": [ -116.338904103274004, 52.6180621793767 ] } },
{ "type": "Feature", "properties": { "OBJECTID": 930916, "Name_e": "Siffleur Falls", "Nom_f": null, "Noms_Alt_Names": null, "Description": "", "min_scale_echelle": null, "max_scale_echelle": null, "CONCISCODE": "Falls\/\/Chute" }, "geometry": { "type": "Point", "coordinates": [ -116.369737253999006, 52.0241732012569 ] } },
{ "type": "Feature", "properties": { "OBJECTID": 930917, "Name_e": "Upper Longview Lake", "Nom_f": null, "Noms_Alt_Names": null, "Description": "", "min_scale_echelle": null, "max_scale_echelle": null, "CONCISCODE": "Lake\/\/Lac" }, "geometry": { "type": "Point", "coordinates": [ -116.924459622377995, 52.3838953585255 ] } },
{ "type": "Feature", "properties": { "OBJECTID": 930918, "Name_e": "Obstruction Lakes", "Nom_f": null, "Noms_Alt_Names": null, "Description": "", "min_scale_echelle": null, "max_scale_echelle": null, "CONCISCODE": "Lake\/\/Lac" }, "geometry": { "type": "Point", "coordinates": [ -116.863348510343997, 52.418062100561002 ] } },
{ "type": "Feature", "properties": { "OBJECTID": 930919, "Name_e": "Job Creek", "Nom_f": null, "Noms_Alt_Names": null, "Description": "", "min_scale_echelle": null, "max_scale_echelle": null, "CONCISCODE": "River\/\/Cours d'eau" }, "geometry": { "type": "Point", "coordinates": [ -116.871959681334999, 52.497784313006903 ] } },
{ "type": "Feature", "properties": { "OBJECTID": 930920, "Name_e": "Whisker Creek", "Nom_f": null, "Noms_Alt_Names": null, "Description": "", "min_scale_echelle": null, "max_scale_echelle": null, "CONCISCODE": "River\/\/Cours d'eau" }, "geometry": { "type": "Point", "coordinates": [ -116.826681972535994, 52.482506533779102 ] } },
{ "type": "Feature", "properties": { "OBJECTID": 930921, "Name_e": "Ashburner Creek", "Nom_f": null, "Noms_Alt_Names": null, "Description": "", "min_scale_echelle": null, "max_scale_echelle": null, "CONCISCODE": "River\/\/Cours d'eau" }, "geometry": { "type": "Point", "coordinates": [ -116.535293093991001, 52.751117662064402 ] } },
{ "type": "Feature", "properties": { "OBJECTID": 930922, "Name_e": "Clark Creek", "Nom_f": null, "Noms_Alt_Names": null, "Description": "", "min_scale_echelle": null, "max_scale_echelle": null, "CONCISCODE": "River\/\/Cours d'eau" }, "geometry": { "type": "Point", "coordinates": [ -116.512793048838006, 52.751673217508703 ] } },
{ "type": "Feature", "properties": { "OBJECTID": 930923, "Name_e": "Dorothy Creek", "Nom_f": null, "Noms_Alt_Names": null, "Description": "", "min_scale_echelle": null, "max_scale_echelle": null, "CONCISCODE": "River\/\/Cours d'eau" }, "geometry": { "type": "Point", "coordinates": [ -116.486404215818993, 52.754173206721902 ] } },
{ "type": "Feature", "properties": { "OBJECTID": 930924, "Name_e": "McCormick Creek", "Nom_f": null, "Noms_Alt_Names": null, "Description": "", "min_scale_echelle": null, "max_scale_echelle": null, "CONCISCODE": "River\/\/Cours d'eau" }, "geometry": { "type": "Point", "coordinates": [ -116.451959702490996, 52.762506583391399 ] } },
{ "type": "Feature", "properties": { "OBJECTID": 930925, "Name_e": "Pinto Lake", "Nom_f": null, "Noms_Alt_Names": null, "Description": "", "min_scale_echelle": null, "max_scale_echelle": null, "CONCISCODE": "Lake\/\/Lac" }, "geometry": { "type": "Point", "coordinates": [ -116.863070725222002, 52.123895416266102 ] } },
{ "type": "Feature", "properties": { "OBJECTID": 930926, "Name_e": "Huntington Creek", "Nom_f": null, "Noms_Alt_Names": null, "Description": "", "min_scale_echelle": null, "max_scale_echelle": null, "CONCISCODE": "River\/\/Cours d'eau" }, "geometry": { "type": "Point", "coordinates": [ -116.853348470005997, 52.141117636373401 ] } },
{ "type": "Feature", "properties": { "OBJECTID": 930927, "Name_e": "Dowling Ford", "Nom_f": null, "Noms_Alt_Names": null, "Description": "", "min_scale_echelle": null, "max_scale_echelle": null, "CONCISCODE": "River\/\/Cours d'eau" }, "geometry": { "type": "Point", "coordinates": [ -116.821682043050998, 52.6375065453391 ] } },
{ "type": "Feature", "properties": { "OBJECTID": 930928, "Name_e": "Opabin Creek", "Nom_f": null, "Noms_Alt_Names": null, "Description": "", "min_scale_echelle": null, "max_scale_echelle": null, "CONCISCODE": "River\/\/Cours d'eau" }, "geometry": { "type": "Point", "coordinates": [ -116.811404238413999, 52.644450953456101 ] } },
{ "type": "Feature", "properties": { "OBJECTID": 930929, "Name_e": "Race Creek", "Nom_f": null, "Noms_Alt_Names": null, "Description": "", "min_scale_echelle": null, "max_scale_echelle": null, "CONCISCODE": "River\/\/Cours d'eau" }, "geometry": { "type": "Point", "coordinates": [ -116.807515309474994, 52.700562098881001 ] } },
{ "type": "Feature", "properties": { "OBJECTID": 930930, "Name_e": "Lake of Falls", "Nom_f": null, "Noms_Alt_Names": null, "Description": "", "min_scale_echelle": null, "max_scale_echelle": null, "CONCISCODE": "Lake\/\/Lac" }, "geometry": { "type": "Point", "coordinates": [ -116.628626235393995, 52.085006512141398 ] } },
{ "type": "Feature", "properties": { "OBJECTID": 930931, "Name_e": "Shanks Creek", "Nom_f": null, "Noms_Alt_Names": null, "Description": "", "min_scale_echelle": null, "max_scale_echelle": null, "CONCISCODE": "River\/\/Cours d'eau" }, "geometry": { "type": "Point", "coordinates": [ -116.317237379996996, 52.611951014763797 ] } },
{ "type": "Feature", "properties": { "OBJECTID": 930932, "Name_e": "Lookout Creek", "Nom_f": null, "Noms_Alt_Names": null, "Description": "", "min_scale_echelle": null, "max_scale_echelle": null, "CONCISCODE": "River\/\/Cours d'eau" }, "geometry": { "type": "Point", "coordinates": [ -116.317515241224996, 52.615284335211598 ] } },
{ "type": "Feature", "properties": { "OBJECTID": 930933, "Name_e": "Nelson Flat", "Nom_f": null, "Noms_Alt_Names": null, "Description": "", "min_scale_echelle": null, "max_scale_echelle": null, "CONCISCODE": "Plain\/\/Plaine" }, "geometry": { "type": "Point", "coordinates": [ -116.300015201988998, 52.633306582727698 ] } },
{ "type": "Feature", "properties": { "OBJECTID": 930934, "Name_e": "Hansen Creek", "Nom_f": null, "Noms_Alt_Names": null, "Description": "", "min_scale_echelle": null, "max_scale_echelle": null, "CONCISCODE": "River\/\/Cours d'eau" }, "geometry": { "type": "Point", "coordinates": [ -116.328348540980002, 52.686951034782702 ] } },
{ "type": "Feature", "properties": { "OBJECTID": 930935, "Name_e": "Cataract Creek", "Nom_f": null, "Noms_Alt_Names": null, "Description": "", "min_scale_echelle": null, "max_scale_echelle": null, "CONCISCODE": "River\/\/Cours d'eau" }, "geometry": { "type": "Point", "coordinates": [ -116.842792970065005, 52.145006500012201 ] } },
{ "type": "Feature", "properties": { "OBJECTID": 930936, "Name_e": "Chungo Creek", "Nom_f": null, "Noms_Alt_Names": null, "Description": "", "min_scale_echelle": null, "max_scale_echelle": null, "CONCISCODE": "River\/\/Cours d'eau" }, "geometry": { "type": "Point", "coordinates": [ -116.316715232009003, 52.7167065847175 ] } },
{ "type": "Feature", "properties": { "OBJECTID": 930937, "Name_e": "Brown Creek", "Nom_f": null, "Noms_Alt_Names": null, "Description": "", "min_scale_echelle": null, "max_scale_echelle": null, "CONCISCODE": "River\/\/Cours d'eau" }, "geometry": { "type": "Point", "coordinates": [ -116.263904104906999, 52.726117667036597 ] } },
{ "type": "Feature", "properties": { "OBJECTID": 930938, "Name_e": "Swale Creek", "Nom_f": null, "Noms_Alt_Names": null, "Description": "", "min_scale_echelle": null, "max_scale_echelle": null, "CONCISCODE": "River\/\/Cours d'eau" }, "geometry": { "type": "Point", "coordinates": [ -116.022792952087997, 52.576395522904903 ] } },
{ "type": "Feature", "properties": { "OBJECTID": 930939, "Name_e": "Wawa Creek", "Nom_f": null, "Noms_Alt_Names": null, "Description": "", "min_scale_echelle": null, "max_scale_echelle": null, "CONCISCODE": "River\/\/Cours d'eau" }, "geometry": { "type": "Point", "coordinates": [ -116.035015157000998, 52.723895484266102 ] } },
{ "type": "Feature", "properties": { "OBJECTID": 930940, "Name_e": "Waterfalls Creek", "Nom_f": null, "Noms_Alt_Names": null, "Description": "", "min_scale_echelle": null, "max_scale_echelle": null, "CONCISCODE": "River\/\/Cours d'eau" }, "geometry": { "type": "Point", "coordinates": [ -116.683626221349002, 52.153895365750003 ] } },
{ "type": "Feature", "properties": { "OBJECTID": 930941, "Name_e": "Shoe Leather Creek", "Nom_f": null, "Noms_Alt_Names": null, "Description": "", "min_scale_echelle": null, "max_scale_echelle": null, "CONCISCODE": "River\/\/Cours d'eau" }, "geometry": { "type": "Point", "coordinates": [ -116.579459496878997, 52.121673155811699 ] } },
{ "type": "Feature", "properties": { "OBJECTID": 930942, "Name_e": "Entry Creek", "Nom_f": null, "Noms_Alt_Names": null, "Description": "", "min_scale_echelle": null, "max_scale_echelle": null, "CONCISCODE": "River\/\/Cours d'eau" }, "geometry": { "type": "Point", "coordinates": [ -116.582237270031001, 52.1525064956734 ] } },
{ "type": "Feature", "properties": { "OBJECTID": 930943, "Name_e": "Siffleur River", "Nom_f": null, "Noms_Alt_Names": null, "Description": "", "min_scale_echelle": null, "max_scale_echelle": null, "CONCISCODE": "River\/\/Cours d'eau" }, "geometry": { "type": "Point", "coordinates": [ -116.404181781556005, 52.057784295059299 ] } },